,geonameid,name,population,latitude,longitude,feature_code,modification_date,admin1_code,admin2_code,admin3_code,admin4_code,belongs_to_metrocity,belongs_to_metrocity_id,metrocity_impact,metrocity_population,is_metrocity,metrocity_radius
38634,3094802,Kraków,755050,50.06143,19.93658,PPLA,2020-09-18,77,1261,126101,,,,0.0,10794231,1,99.949237627267
32047,3088171,Poznań,570352,52.40692,16.92993,PPLA,2020-05-21,86,3064,306401,,,,0.0,4354495,1,95.59763622764606
49044,6695624,Warszawa,1794166,52.23547,21.04191,ADM2,2022-04-04,78,1465,,,,,0.0,8483684,1,99.74826774107476
25287,3081368,Wrocław,634893,51.1,17.03333,PPLA,2021-10-06,72,0264,026401,,,,0.0,5414376,1,97.88798313704899
36976,3093133,Łódź,768755,51.77058,19.47395,PPLA,2020-12-19,74,1061,106101,,,,0.0,3936005,1,94.11647849721422
23739,776810,Abramów,157,50.69912,22.70205,PPL,2010-10-16,75,0602,060206,,,,0.0,157,0,
23737,776808,Abramów,713,51.45647,22.31521,PPLA3,2010-10-16,75,0608,060802,,,,0.0,713,0,
47953,3104178,Adamowice,909,50.13191,18.33292,PPL,2010-10-20,83,2412,241204,,,,0.0,909,0,
23715,776786,Adamów,77,51.91669,20.2375,PPL,2010-09-07,74,1015,101507,,Warszawa,6695624,0.29031242452594863,77,0,
23718,776789,Adamów,163,51.61834,21.37321,PPL,2010-09-07,78,1407,140702,,Warszawa,6695624,0.2549349055639824,163,0,
23720,776791,Adamów,154,51.24806,23.11326,PPL,2010-09-07,75,0610,061001,,,,0.0,154,0,
23721,776792,Adamów,59,51.19597,20.1376,PPL,2010-09-07,74,1007,100708,,Łódź,3093133,0.2477714898476057,59,0,
23722,776793,Adamów,210,51.06017,20.42315,PPL,2010-09-07,84,2605,260507,,,,0.0,210,0,
23723,776794,Adamów,101,51.02623,21.44051,PPL,2010-09-07,78,1409,140905,,,,0.0,101,0,
23724,776795,Adamów,883,51.01921,21.14885,PPL,2010-09-07,84,2611,261102,,,,0.0,883,0,
23725,776796,Adamów,380,50.5955,23.1542,PPL,2010-09-07,75,0620,062001,,,,0.0,380,0,
47954,3104179,Adamów,198,52.34058,19.64381,PPL,2010-09-07,78,1404,140405,,Łódź,3093133,0.3190749418799175,198,0,
47956,3104181,Adamów,280,52.26201,18.08856,PPL,2010-09-07,86,3010,301001,,Poznań,3088171,0.27463962312374096,280,0,
47957,3104182,Adamów,190,51.87114,19.00583,PPL,2010-09-07,74,1011,101103,,Łódź,3093133,0.3638736164543475,190,0,
47958,3104184,Adamów,95,51.77214,19.69093,PPL,2010-09-07,74,1021,102102,,Łódź,3093133,0.6420188058575986,95,0,
47959,3104185,Adamów,65,51.66574,19.97211,PPL,2010-09-07,74,1016,101603,,Łódź,3093133,0.34106532538673423,65,0,
47960,3104186,Adamów,167,51.4082,19.31079,PPL,2010-09-07,74,1001,100102,,Łódź,3093133,0.28885472623746,167,0,
47961,3104187,Adamów,98,51.16691,19.7475,PPL,2010-09-07,74,1010,101005,,Łódź,3093133,0.2904002339085098,98,0,
47962,3104188,Adamów,137,51.10196,19.28676,PPL,2010-09-07,74,1012,101209,,Łódź,3093133,0.26238306115956656,137,0,
47963,3104189,Adamów,308,50.86984,19.33911,PPL,2010-09-07,83,2404,240405,,Kraków,3094802,0.24815703083733298,308,0,
49074,6696248,Adamów,51,52.1465,20.63773,PPL,2010-09-07,78,1405,140504,,Warszawa,6695624,0.5749309071141934,51,0,
49237,6956078,Adamów,42,52.31669,21.82194,PPL,2010-09-07,78,1433,143309,,Warszawa,6695624,0.36136659062817567,42,0,
23714,776785,Adamów,150,52.02414,20.59636,PPL,2017-09-12,78,1438,143804,,Warszawa,6695624,0.48350044304447704,150,0,
23717,776788,Adamów,2100,51.74335,22.26414,PPL,2022-12-26,75,0611,061103,,,,0.0,2100,0,
23708,776779,Adamówka,154,50.93599,22.80427,PPL,2010-09-27,75,0606,060611,,,,0.0,154,0,
23709,776780,Adamówka,1205,50.25857,22.69595,PPLA3,2010-09-27,80,1814,181402,,,,0.0,1205,0,
23688,776759,Albigowa,2923,50.01425,22.22414,PPL,2010-10-13,80,1810,181004,,,,0.0,2923,0,
47911,3104135,Aleksandrowice,726,50.08215,19.76475,PPL,2010-10-17,77,1206,120616,,Kraków,3094802,0.6877497729389531,726,0,
23669,776740,Aleksandrów,145,52.33754,20.62537,PPL,2010-10-19,78,1414,141402,,Warszawa,6695624,0.5615245669757315,145,0,
23671,776742,Aleksandrów,263,52.21571,21.7343,PPL,2010-10-19,78,1412,141208,,Warszawa,6695624,0.4095574012743546,263,0,
23675,776746,Aleksandrów,461,51.90176,22.46223,PPL,2010-10-19,75,0611,061105,,,,0.0,461,0,
23676,776747,Aleksandrów,52,51.78887,23.3517,PPL,2010-10-19,75,0601,060115,,,,0.0,52,0,
23677,776748,Aleksandrów,120,51.77044,21.34541,PPL,2010-10-19,78,1407,140706,,Warszawa,6695624,0.34865394120568033,120,0,
23682,776753,Aleksandrów,200,51.08304,21.58504,PPL,2010-10-19,78,1409,140905,,,,0.0,200,0,
23683,776754,Aleksandrów,250,50.93528,21.97094,PPL,2010-10-19,75,0607,060704,,,,0.0,250,0,
47918,3104142,Aleksandrów,297,52.06215,17.4099,PPL,2010-10-19,86,3025,302503,,Poznań,3088171,0.34440473877458205,297,0,
23673,776744,Aleksandrów,253,52.13623,20.32359,PPL,2017-06-26,78,1438,143805,,Warszawa,6695624,0.3870699818005763,253,0,
23684,776755,Aleksandrów,3135,50.4663,22.89225,PPLA3,2010-10-14,75,0602,060202,,,,0.0,3135,0,
47922,3104146,Aleksandrów,200,51.27126,19.99005,PPLA3,2013-07-14,74,1010,101001,,Łódź,3093133,0.31028033763567714,200,0,
47909,3104133,Aleksandrów Kujawski,12290,52.87659,18.69345,PPL,2010-09-14,73,0401,040101,,,,0.0,12290,0,
47908,3104132,Aleksandrów Łódzki,20292,51.81965,19.30384,PPLA3,2010-10-16,74,1020,102004,,Łódź,3093133,0.6817331238407134,20292,0,
47903,3104127,Alwernia,3362,50.06056,19.53953,PPLA3,2010-10-17,77,1203,120301,,Kraków,3094802,0.4272899286964243,3362,0,
47892,3104116,Andrespol,3773,51.72783,19.64175,PPLA3,2010-10-15,74,1006,100602,,Łódź,3093133,0.6902258896609038,3773,0,
23636,776707,Andruszkowice,312,50.66742,21.6989,PPL,2010-09-07,84,2609,260907,,,,0.0,312,0,
47891,3104115,Andrychów,21954,49.85497,19.33834,PPLA3,2019-10-15,77,1218,121801,,Kraków,3094802,0.45672432560240966,21954,0,
23633,776704,Andrzejewo,900,52.83098,22.20277,PPL,2010-09-07,78,1416,141602,,,,0.0,900,0,
23632,776703,Andrzejewo,79,54.28808,23.10142,PPL,2015-01-15,81,2012,201208,,,,0.0,79,0,
47887,3104111,Andrzejów,500,51.74074,19.6106,PPL,2012-11-27,74,1061,106101,,Łódź,3093133,0.7437734248668133,500,0,
23606,776677,Annopol,2654,50.88551,21.85678,PPLA3,2010-10-11,75,0607,060702,,,,0.0,2654,0,
23536,776607,Arynów,229,52.20544,21.5369,PPL,2010-10-20,78,1412,141211,,Warszawa,6695624,0.5269349665045406,229,0,
23526,776597,Augustów,29752,53.84321,22.97979,PPLA3,2019-01-14,81,2001,200102,,,,0.0,29752,0,
47798,3104022,Babiak,1500,52.3453,18.66663,PPLA3,2010-10-15,86,3009,300902,,Łódź,3093133,0.2740235322505852,1500,0,
23505,776574,Babica,1200,49.93476,21.87035,PPL,2010-10-13,80,1819,181901,,,,0.0,1200,0,
23502,776571,Babice,321,51.69778,21.85601,PPL,2010-09-07,78,1403,140312,,Warszawa,6695624,0.31541793896736614,321,0,
23503,776572,Babice,966,50.35236,22.90203,PPL,2010-09-07,75,0602,060210,,,,0.0,966,0,
47792,3104016,Babice,335,50.17179,17.91492,PPL,2010-09-07,79,1602,160201,,,,0.0,335,0,
47793,3104017,Babice,864,50.1427,18.2973,PPL,2010-09-07,83,2411,241106,,,,0.0,864,0,
47795,3104019,Babice,1582,50.05565,19.19955,PPL,2010-09-07,77,1213,121306,,Kraków,3094802,0.4278037210142412,1582,0,
23504,776573,Babice,832,49.81838,22.47597,PPL,2010-10-13,80,1813,181305,,,,0.0,832,0,
47794,3104018,Babice,1369,50.06882,19.44906,PPLA3,2010-10-23,77,1203,120302,,Kraków,3094802,0.35196247676204423,1369,0,
47779,3104002,Babimost,4182,52.16488,15.82769,PPLA3,2013-04-02,76,0809,080901,,Poznań,3088171,0.27773622760233607,4182,0,
47772,3103995,Babki,434,52.3132,16.93697,PPL,2015-09-05,86,3021,302110,,Poznań,3088171,0.6901584756675533,434,0,
47766,3103989,Baborów,3114,50.1576,17.98513,PPLA3,2010-09-25,79,1602,160201,,,,0.0,3114,0,
23485,776553,Baboszewo,1800,52.6807,20.25527,PPLA3,2010-10-16,78,1420,142003,,Warszawa,6695624,0.2527278276374398,1800,0,
47748,3103971,Bachowice,2234,49.95812,19.49369,PPL,2010-10-17,77,1218,121806,,Kraków,3094802,0.36419154709649126,2234,0,
23448,776516,Baczków,753,50.03366,20.44127,PPL,2010-10-29,77,1201,120102,,Kraków,3094802,0.33788025760421053,753,0,
47743,3103966,Baczyn,840,49.79257,19.72063,PPL,2010-09-23,77,1215,121503,,Kraków,3094802,0.3643370601690645,840,0,
47742,3103965,Baczyna,900,52.755,15.11513,PPL,2012-11-26,76,0861,086101,,,,0.0,900,0,
23409,776477,Bakałarzewo,890,54.09398,22.65218,PPL,2010-09-07,81,2012,201201,,,,0.0,890,0,
47673,3103896,Balice,1200,50.08799,19.79462,PPL,2010-10-17,77,1206,120616,,Kraków,3094802,0.7286414005612845,1200,0,
23390,776458,Baligród,1468,49.3309,22.28566,PPLA3,2010-09-25,80,1821,182101,,,,0.0,1468,0,
23378,776446,Bandrów Narodowy,500,49.38807,22.70874,PPL,2010-11-28,80,1801,180108,,,,0.0,500,0,
47662,3103884,Banie,1967,53.10031,14.66228,PPLA3,2011-07-31,87,3206,320601,,,,0.0,1967,0,
23373,776441,Banie Mazurskie,1500,54.24662,22.03617,PPL,2010-09-09,85,2818,281801,,,,0.0,1500,0,
47660,3103882,Banino,2593,54.39215,18.40622,PPL,2010-10-21,82,2205,220508,,,,0.0,2593,0,
23372,776440,Baniocha,4000,52.01653,21.13984,PPL,2010-10-30,78,1418,141801,,Warszawa,6695624,0.6204218310696411,4000,0,
23336,776404,Baranowo,85,54.31252,22.98709,PPL,2010-09-18,81,2012,201206,,,,0.0,85,0,
23337,776405,Baranowo,600,53.82639,21.4472,PPL,2010-09-18,85,2810,281002,,,,0.0,600,0,
23338,776406,Baranowo,152,53.31442,20.82725,PPL,2010-09-18,85,2817,281708,,,,0.0,152,0,
47648,3103870,Baranowo,101,52.497,17.49641,PPL,2010-09-18,86,3003,300306,,Poznań,3088171,0.43196354802916864,101,0,
52571,7535568,Baranowo,1331,52.43525,16.78631,PPL,2010-09-18,86,3021,302117,,Poznań,3088171,0.6949866074259565,1331,0,
23339,776407,Baranowo,1250,53.17554,21.29803,PPLA3,2010-09-18,78,1415,141501,,,,0.0,1250,0,
23346,776414,Baranów,434,52.11989,20.47285,PPL,2010-09-03,74,,,,Warszawa,6695624,0.46168856203766095,434,0,
23347,776415,Baranów,1672,51.55786,22.13625,PPLA3,2010-10-16,75,0614,061402,,,,0.0,1672,0,
47655,3103877,Baranów,1500,51.26342,18.0047,PPLA3,2010-10-16,86,3008,300801,,Wrocław,3081368,0.33426042124493033,1500,0,
23335,776403,Baranów Sandomierski,1426,50.49912,21.54204,PPLA3,2010-10-14,80,1820,182001,,,,0.0,1426,0,
23344,776412,Baranówek,210,50.77539,21.2491,PPL,2010-09-10,84,2606,260601,,,,0.0,210,0,
52342,7534587,Baranówek,110,51.88041,17.75331,PPL,2010-09-10,86,3020,302006,,Poznań,3088171,0.27117961699237536,110,0,
52349,7534595,Baranówka,750,50.1444,20.10283,PPL,2010-10-30,77,1206,120605,,Kraków,3094802,0.637176884837926,750,0,
23325,776393,Barciany,1100,54.21993,21.35347,PPL,2010-09-09,85,2808,280802,,,,0.0,1100,0,
47634,3103856,Barcin,7682,52.86607,17.94625,PPLA3,2010-10-30,73,0419,041901,,Poznań,3088171,0.25283872162230614,7682,0,
47631,3103853,Barcino,577,54.27715,16.96246,PPL,2010-09-08,82,2212,221205,,,,0.0,577,0,
23316,776384,Barczewo,7315,53.83055,20.69112,PPLA3,2011-07-31,85,2814,281401,,,,0.0,7315,0,
47625,3103847,Bardo,2763,50.50589,16.73986,PPL,2010-09-12,72,0224,022401,,Wrocław,3081368,0.3389779913868602,2763,0,
23310,776378,Bargłów Kościelny,800,53.77367,22.8229,PPL,2010-09-09,81,2001,200103,,,,0.0,800,0,
47602,3103824,Barlinek,14385,52.99464,15.21864,PPLA3,2019-09-05,87,3210,321001,,,,0.0,14385,0,
23342,776410,Barnowiec,167,49.50492,20.78424,PPL,2010-09-11,77,1210,121008,,Kraków,3094802,0.2959261557280395,167,0,
47590,3103812,Barnówko,286,52.78454,14.76665,PPL,2010-10-30,87,3210,321003,,,,0.0,286,0,
52455,7535367,Bartniczka,550,53.24776,19.60433,PPLA3,2010-09-14,73,0402,040206,,,,0.0,550,0,
23270,776337,Bartoszyce,23482,54.25354,20.80819,PPL,2021-11-19,85,2801,280101,,,,0.0,23482,0,
47564,3103785,Baruchowo,434,52.49412,19.26496,PPLA3,2010-09-16,73,0418,041802,,Łódź,3093133,0.28574911002017345,434,0,
47559,3103780,Barwice,3756,53.7449,16.3553,PPLA3,2011-07-31,87,3215,321502,,,,0.0,3756,0,
23243,776310,Batorz,982,50.8505,22.49313,PPLA3,2017-10-03,75,0605,060501,,,,0.0,982,0,
23463,776531,Baćkowice,540,50.79194,21.23211,PPLA3,2010-09-26,84,2606,260601,,,,0.0,540,0,
23385,776453,Bałtów,522,51.49004,22.02347,PPL,2010-09-07,75,0614,061411,,,,0.0,522,0,
23386,776454,Bałtów,740,51.01845,21.54385,PPLA3,2010-10-16,84,2607,260702,,,,0.0,740,0,
47539,3103760,Bażanowice,1161,49.73791,18.70345,PPL,2018-06-24,83,2403,240307,,Kraków,3094802,0.26239178598819496,1161,0,
47516,3103736,Bedlno,640,52.20829,19.57592,PPLA3,2010-10-15,74,1002,100202,,Łódź,3093133,0.41824964052346136,640,0,
47507,3103727,Bedoń Wieś,220,51.74441,19.64433,PPL,2017-09-15,74,1006,100602,,Łódź,3093133,0.698649907798342,220,0,
23204,776271,Bejsce,878,50.23903,20.59834,PPLA3,2010-10-10,84,2603,260301,,Kraków,3094802,0.43827868942186043,878,0,
23184,776251,Bemowo,102393,52.2546,20.90844,PPL,2018-01-16,78,1465,146501,146502_8,Warszawa,6695624,0.8382301240942427,102393,0,
23149,776214,Besko,3700,49.58757,21.95292,PPLA3,2010-09-25,80,1817,181702,,,,0.0,3700,0,
47436,3103656,Bestwina,4409,49.89712,19.05776,PPL,2010-09-06,83,2402,240202,,Kraków,3094802,0.3478368667323889,4409,0,
47435,3103655,Bestwinka,1541,49.93272,19.06694,PPL,2010-09-06,83,2402,240204,,Kraków,3094802,0.35725262916250966,1541,0,
47489,3103709,Bełchatów,62896,51.36883,19.35671,PPLA2,2010-10-15,74,1001,100101,,Łódź,3093133,0.2598931920159638,62896,0,
47476,3103696,Bełk,3353,50.13048,18.71667,PPL,2010-09-07,83,2412,241201,,Kraków,3094802,0.29359651046607216,3353,0,
47470,3103690,Bełsznica,1095,49.97811,18.36313,PPL,2010-09-06,83,2415,241506,,,,0.0,1095,0,
52828,7576105,Bełżec,2723,50.38453,23.43839,PPLA3,2010-10-14,75,0618,061802,,,,0.0,2723,0,
23185,776252,Bełżyce,6958,51.17415,22.28027,PPLA3,2010-10-11,75,0609,060901,,,,0.0,6958,0,
52568,7535565,Biała,613,52.60524,19.64956,PPLA3,2010-09-18,78,1419,141913,,Łódź,3093133,0.24856804137294355,613,0,
47424,3103644,Biała,2605,50.38587,17.66035,PPLA3,2018-11-16,79,1610,161001,,Wrocław,3081368,0.26893182688602096,2605,0,
23114,776178,Biała Piska,4027,53.61191,22.06321,PPLA3,2011-07-31,85,2816,281601,,,,0.0,4027,0,
23111,776175,Biała Podlaska,57541,52.03238,23.11652,PPLA2,2019-09-05,75,0661,066101,,,,0.0,57541,0,
23108,776172,Biała Rawska,3231,51.80779,20.47259,PPLA3,2010-10-01,74,1013,101302,,Warszawa,6695624,0.3127492948479198,3231,0,
47386,3103604,Biała Wielka,445,50.69102,19.65291,PPL,2010-10-21,83,2404,240409,,Kraków,3094802,0.3086965772029004,445,0,
23120,776184,Białaczów,1500,51.29815,20.29724,PPLA3,2010-10-01,74,1007,100701,,Łódź,3093133,0.25322815715536856,1500,0,
47370,3103588,Białe Błota,5989,53.09516,17.91621,PPL,2010-09-13,73,0403,040301,,,,0.0,5989,0,
23079,776143,Białka,605,49.87085,22.03514,PPL,2010-10-19,80,1816,181602,,,,0.0,605,0,
47425,3103645,Białka,2542,49.69306,19.67033,PPL,2010-10-19,77,1215,121506,,Kraków,3094802,0.25779783749504986,2542,0,
23080,776144,Białka Tatrzańska,2200,49.38975,20.10507,PPL,2010-09-27,77,1217,121703,,Kraków,3094802,0.2949492167308648,2200,0,
23049,776113,Białobrzegi,1208,52.44199,21.05255,PPL,2010-10-14,78,1408,140803,,Warszawa,6695624,0.6476415481482057,1208,0,
23050,776114,Białobrzegi,7328,51.64695,20.95041,PPLA2,2010-09-17,78,1401,140101,,Warszawa,6695624,0.28851223481485405,7328,0,
23056,776120,Białobrzegi,2200,50.10252,22.31907,PPLA3,2010-10-14,80,1810,181002,,,,0.0,2200,0,
47338,3103556,Białogard,24368,54.00696,15.98751,PPL,2021-11-19,87,3201,320101,,,,0.0,24368,0,
47336,3103554,Białogóra,359,54.81603,17.95823,PPL,2019-10-02,82,2211,221106,,,,0.0,359,0,
23037,776101,Białopole,883,50.98604,23.73124,PPL,2010-09-09,75,0603,060302,,,,0.0,883,0,
47329,3103547,Białopole,133,50.88295,14.90038,PPL,2015-09-03,72,0225,022503,,,,0.0,133,0,
23030,776092,Białowieża,2670,52.7,23.86667,PPLA3,2011-07-31,81,2005,200502,,,,0.0,2670,0,
23039,776103,Białołeka,129106,52.32127,20.97204,PPL,2021-11-19,78,1465,146501,146503_8,Warszawa,6695624,0.8174691230443004,129106,0,
47327,3103545,Białośliwie,2600,53.10461,17.12533,PPLA3,2010-10-16,86,3019,301902,,Poznań,3088171,0.28211166953978284,2600,0,
47314,3103531,Biały Bór,2209,53.8967,16.83543,PPLA3,2011-07-31,87,3215,321503,,,,0.0,2209,0,
23018,776080,Biały Dunajec,4200,49.3738,20.00898,PPLA3,2010-09-17,77,1217,121702,,Kraków,3094802,0.29034525384692467,4200,0,
23007,776069,Białystok,291855,53.13333,23.16433,PPLA,2021-08-03,81,2061,206101,,,,0.0,291855,0,
22991,776053,Biecz,4564,49.73596,21.26301,PPL,2010-09-10,77,1205,120502,,,,0.0,4564,0,
47288,3103505,Biecz,252,51.8083,14.83206,PPL,2010-09-11,76,0811,081103,,,,0.0,252,0,
22967,776029,Bielany,134854,52.29242,20.93531,PPL,2018-01-16,78,1465,146501,146504_8,Warszawa,6695624,0.8335370752532544,134854,0,
22962,776024,Bielany,168,52.34174,22.24929,PPLA3,2010-09-19,78,1429,142902,,Warszawa,6695624,0.3101070435922575,168,0,
47260,3103477,Bielany Wrocławskie,3219,51.0361,16.9677,PPL,2010-10-19,72,0223,022305,,Wrocław,3081368,0.7545362666401063,3219,0,
22961,776023,Bielawa,960,52.10888,21.13152,PPL,2010-10-30,78,1418,141802,,Warszawa,6695624,0.7481504591073257,960,0,
47259,3103476,Bielawa,29971,50.69075,16.623,PPL,2021-11-19,72,0202,020201,,Wrocław,3081368,0.3261215246753852,29971,0,
47249,3103466,Bielawy,750,51.76911,15.93807,PPL,2010-10-15,76,0804,080408,,,,0.0,750,0,
47235,3103452,Bielawy,130,52.8273,18.00814,PPL,2010-10-30,73,0419,041901,,Poznań,3088171,0.2487735195523844,130,0,
47245,3103462,Bielawy,620,52.07539,19.65557,PPLA3,2010-10-15,74,1005,100502,,Łódź,3093133,0.34242683776452126,620,0,
47216,3103433,Bielice,182,52.34897,14.95943,PPL,2015-09-06,76,0807,080705,,,,0.0,182,0,
47215,3103432,Bielice,560,53.20022,14.7276,PPLA3,2011-07-31,87,3212,321201,,,,0.0,560,0,
47210,3103427,Bielin,518,52.82883,14.4541,PPL,2010-10-30,87,3206,320606,,,,0.0,518,0,
47208,3103425,Bielinek,210,52.94279,14.1549,PPL,2010-10-30,87,3206,320602,,,,0.0,210,0,
22935,775997,Bieliny,8,52.30606,20.44504,PPL,2010-10-12,78,1432,143203,,Warszawa,6695624,0.457434391283142,8,0,
22939,776001,Bieliny,1061,50.44237,22.30482,PPL,2010-10-12,80,1812,181207,,,,0.0,1061,0,
22934,775996,Bieliny,1900,50.84947,20.94149,PPLA3,2010-10-12,84,2604,260401,,,,0.0,1900,0,
47202,3103419,Bielkowo,217,54.26021,18.5111,PPL,2010-10-30,82,2204,220403,,,,0.0,217,0,
47194,3103411,Bielsk,2600,52.6718,19.805,PPLA3,2010-09-18,78,1419,141901,,Warszawa,6695624,0.25495129289539115,2600,0,
22924,775986,Bielsk Podlaski,26493,52.76512,23.18647,PPLA3,2019-09-05,81,2003,200301,,,,0.0,26493,0,
47185,3103402,Bielsko-Biala,176515,49.82245,19.04686,PPLA3,2022-03-10,83,2461,246101,,Kraków,3094802,0.32847393660498764,176515,0,
49510,7530791,Bielsko-Biała,165374,49.81204,19.03899,ADM2,2022-04-04,83,2461,,,Kraków,3094802,0.32333544130209163,165374,0,
22919,775981,Bieniaszowice,166,50.21964,20.76124,PPL,2010-10-20,77,1204,120403,,Kraków,3094802,0.3716051209194327,166,0,
22914,775976,Bieniewice,1129,52.18268,20.56306,PPL,2010-11-27,78,1432,143201,,Warszawa,6695624,0.5342810805361646,1129,0,
47171,3103388,Bierawa,1370,50.28111,18.24177,PPLA3,2010-09-25,79,1603,160302,,,,0.0,1370,0,
47169,3103386,Bierdzany,1072,50.81852,18.15808,PPL,2010-10-16,79,1609,160913,,Wrocław,3081368,0.2657940133574543,1072,0,
47168,3103385,Bierkowice,516,50.47411,16.60232,PPL,2010-10-16,72,0208,020807,,Wrocław,3081368,0.30527738180232783,516,0,
47152,3103369,Biertowice,900,49.87207,19.7929,PPL,2010-10-23,77,1209,120907,,Kraków,3094802,0.4951504606614108,900,0,
47147,3103364,Bierutów,5065,51.12443,17.54607,PPLA3,2010-10-15,72,0214,021402,,Wrocław,3081368,0.3025454968913421,5065,0,
47148,3103365,Bieruń,19659,50.09,19.09291,PPLA2,2014-09-14,83,2414,241401,,Kraków,3094802,0.3779949098070672,19659,0,
47134,3103351,Bierzwnik,1152,53.03567,15.665,PPL,2010-09-28,87,3202,320201,,,,0.0,1152,0,
47129,3103346,Biesiekierz,998,54.13308,16.03909,PPL,2010-09-07,87,3209,320902,,,,0.0,998,0,
47172,3103389,Bieńkówka,264,53.30672,18.33764,PPL,2010-09-23,73,0404,040402,,,,0.0,264,0,
47174,3103391,Bieńkówka,2300,49.776,19.77179,PPL,2010-09-23,77,1215,121503,,Kraków,3094802,0.3621101304022668,2300,0,
47112,3103329,Bieżuń,1931,52.96107,19.88976,PPLA3,2010-09-19,78,1437,143701,,,,0.0,1931,0,
22855,775917,Binarowa,1763,49.75621,21.22816,PPL,2010-10-17,77,1205,120502,,Kraków,3094802,0.2510348922481138,1763,0,
22846,775908,Bircza,1000,49.69173,22.47854,PPLA3,2012-10-01,80,1813,181301,,,,0.0,1000,0,
22843,775905,Biskupice,890,49.96364,20.12129,PPL,2010-09-16,77,1219,121901,,Kraków,3094802,0.5986803753931745,890,0,
22832,775894,Biskupice Radłowskie,1091,50.12069,20.85943,PPL,2010-10-17,77,1216,121605,,Kraków,3094802,0.34380904685588426,1091,0,
52311,7534548,Biskupiec,1927,53.50056,19.35056,PPL,2010-09-09,85,2812,281202,,,,0.0,1927,0,
22828,775890,Biskupiec,10340,53.86467,20.95692,PPLA3,2011-07-31,85,2814,281402,,,,0.0,10340,0,
47060,3103277,Biskupin,320,52.78781,17.73039,PPL,2010-10-30,73,0419,041902,,Poznań,3088171,0.3313792119198819,320,0,
47061,3103278,Biskupin,315,51.32165,15.8504,PPL,2010-10-30,72,0209,020902,,Wrocław,3081368,0.2606822787775513,315,0,
22826,775888,Biszcza,1901,50.40146,22.65063,PPLA3,2010-10-14,75,0602,060204,,,,0.0,1901,0,
22824,775886,Bisztynek,2462,54.08633,20.90192,PPLA3,2014-06-27,85,2801,280104,,,,0.0,2462,0,
22860,775922,Biłgoraj,26987,50.54114,22.72204,PPLA2,2019-09-05,75,0602,060201,,,,0.0,26987,0,
47057,3103274,Blachownia,9891,50.78015,18.96389,PPLA3,2011-07-31,83,2404,240401,,,,0.0,9891,0,
47030,3103247,Bledzew,1300,52.51711,15.41382,PPLA3,2010-10-16,76,0803,080301,,,,0.0,1300,0,
47019,3103236,Blizanów,483,51.90372,18.01003,PPLA3,2010-10-15,86,3007,300701,,Poznań,3088171,0.25189110167432527,483,0,
22783,775844,Blizianka,180,49.86554,21.94124,PPL,2010-10-19,80,1819,181903,,,,0.0,180,0,
22779,775840,Blizne,3500,49.75332,21.97351,PPL,2010-10-19,80,1802,180205,,,,0.0,3500,0,
47010,3103227,Bliżyce,594,50.63324,19.55704,PPL,2010-10-21,83,2409,240903,,Kraków,3094802,0.3281620800327573,594,0,
22775,775836,Bliżyn,2000,51.10778,20.75935,PPLA3,2010-10-16,84,2610,261002,,,,0.0,2000,0,
46963,3103180,Bobolice,97,50.61146,19.49309,PPL,2010-09-07,83,2409,240903,,Kraków,3094802,0.32957355935086335,97,0,
46964,3103181,Bobolice,655,50.62268,16.85835,PPL,2010-09-07,72,0224,022405,,Wrocław,3081368,0.32183830578990325,655,0,
46962,3103179,Bobolice,4365,53.95508,16.58893,PPLA3,2011-07-31,87,3209,320903,,,,0.0,4365,0,
46958,3103175,Boboszów,240,50.10624,16.69849,PPL,2018-11-15,72,0208,020810,,,,0.0,240,0,
22735,775796,Bobowa,3018,49.70866,20.94767,PPL,2012-10-01,77,1205,120503,,Kraków,3094802,0.2646608625516517,3018,0,
46956,3103173,Bobowo,1271,53.88378,18.55681,PPL,2010-09-13,82,2213,221304,,,,0.0,1271,0,
46944,3103161,Bobrowice,290,54.34075,16.63073,PPL,2010-10-16,87,3213,321306,,,,0.0,290,0,
46945,3103162,Bobrowice,884,51.9485,15.09058,PPLA3,2010-10-16,76,0802,080202,,,,0.0,884,0,
22714,775775,Bobrowniki,1200,52.06442,20.01949,PPL,2010-09-06,74,1005,100509,,Warszawa,6695624,0.25483734006464076,1200,0,
22712,775773,Bobrowniki,168,53.3799,23.59374,PPL,2010-09-21,81,2011,201108,,,,0.0,168,0,
22713,775774,Bobrowniki,141,53.12417,23.88934,PPL,2010-09-21,81,2002,200204,,,,0.0,141,0,
22715,775776,Bobrowniki,480,51.59936,21.29923,PPL,2010-09-21,78,1407,140702,,Warszawa,6695624,0.25198069700635894,480,0,
22716,775777,Bobrowniki,610,51.54895,21.93326,PPL,2010-09-21,75,0616,061604,,Warszawa,6695624,0.2514671855843161,610,0,
46932,3103149,Bobrowniki,650,51.8651,15.73191,PPL,2010-09-21,76,0804,080407,,,,0.0,650,0,
46933,3103150,Bobrowniki,220,51.52728,18.8413,PPL,2010-09-21,74,1014,101408,,Łódź,3093133,0.40236916088237656,220,0,
46934,3103151,Bobrowniki,470,51.45128,18.161,PPL,2010-09-21,86,3018,301803,,Wrocław,3081368,0.25416309864480985,470,0,
46935,3103152,Bobrowniki,215,51.10325,18.77907,PPL,2010-09-21,74,1009,100901,,Łódź,3093133,0.25763354553566403,215,0,
46936,3103153,Bobrowniki,180,50.97167,19.84088,PPL,2010-09-21,84,2613,261301,,Łódź,3093133,0.2500661192349172,180,0,
52926,7576443,Bobrowniki,860,54.52626,17.33608,PPL,2010-10-21,82,2212,221202,,,,0.0,860,0,
46931,3103148,Bobrowniki,980,52.78086,18.96026,PPLA3,2010-09-15,73,0408,040802,,,,0.0,980,0,
46937,3103154,Bobrowniki,2926,50.37985,18.98661,PPLA3,2010-09-21,83,2401,240104,,Kraków,3094802,0.291939447842284,2926,0,
46925,3103142,Bobrowo,441,53.28549,19.27053,PPLA3,2010-09-14,73,0402,040202,,,,0.0,441,0,
22697,775758,Bochnia,29184,49.96905,20.43028,PPLA2,2010-10-17,77,1201,120101,,Kraków,3094802,0.33213063072492666,29184,0,
22684,775745,Boczów,236,49.85138,20.28368,PPL,2010-10-30,77,1201,120105,,Kraków,3094802,0.3596251349550792,236,0,
46902,3103119,Boczów,675,52.32249,14.94681,PPL,2010-10-30,76,0807,080705,,,,0.0,675,0,
22677,775738,Bodzanów,1300,52.49992,20.02945,PPLA3,2010-09-18,78,1419,141902,,Warszawa,6695624,0.34815640897585526,1300,0,
22675,775736,Bodzentyn,2228,50.94115,20.95719,PPLA3,2010-09-21,84,2604,260402,,,,0.0,2228,0,
46879,3103096,Bogatynia,17436,50.90747,14.95634,PPL,2021-11-19,72,0225,022503,,,,0.0,17436,0,
46874,3103091,Bogdaniec,1100,52.68897,15.07127,PPLA3,2015-09-04,76,0801,080102,,,,0.0,1100,0,
46863,3103080,Bogdaszowice,367,51.08643,16.78325,PPL,2010-10-19,72,0223,022304,,Wrocław,3081368,0.5577577339442862,367,0,
22659,775720,Bogoria,930,50.65175,21.26,PPLA3,2010-09-29,84,2612,261201,,,,0.0,930,0,
46854,3103071,Boguchwała,194,52.83337,19.41284,PPL,2010-10-13,73,0408,040807,,,,0.0,194,0,
22656,775717,Boguchwała,5823,49.98473,21.94528,PPLA3,2010-10-13,80,1816,181603,,,,0.0,5823,0,
46844,3103061,Bogucin Duży,306,50.32092,19.57489,PPL,2010-10-17,77,1212,121204,,Kraków,3094802,0.31343457212516534,306,0,
22648,775708,Bogumiłowice,916,50.00724,20.8669,PPL,2010-10-20,77,1216,121611,,Kraków,3094802,0.3407429318739124,916,0,
46837,3103054,Bogunice,773,50.1383,18.36863,PPL,2010-10-22,83,2412,241204,,,,0.0,773,0,
46817,3103034,Boguszów-Gorce,16726,50.75514,16.20494,PPLA3,2015-09-04,72,0221,022101,,Wrocław,3081368,0.3370090128266675,16726,0,
46831,3103048,Bogusławice,522,50.95605,19.2592,PPL,2010-10-21,83,2404,240408,,Łódź,3093133,0.2524149146881218,522,0,
22624,775684,Boguty-Pianki,1690,52.7168,22.41546,PPL,2010-09-11,78,1416,141603,,,,0.0,1690,0,
46799,3103016,Bojadła,1200,51.95321,15.81036,PPLA3,2010-10-16,76,0809,080902,,Poznań,3088171,0.2557543025369782,1200,0,
46798,3103015,Bojano,2100,54.47123,18.38408,PPL,2010-10-21,82,2215,221509,,,,0.0,2100,0,
22609,775669,Bojanowo,96,52.92101,20.07099,PPL,2010-10-16,78,1413,141304,,,,0.0,96,0,
46792,3103009,Bojanowo,2960,51.70749,16.74827,PPLA3,2010-10-16,86,3022,302201,,Wrocław,3081368,0.3327921665443087,2960,0,
46791,3103008,Bojanowo Stare,1692,51.99302,16.58369,PPL,2017-09-12,86,3011,301105,,Poznań,3088171,0.3347676509151037,1692,0,
46793,3103010,Bojanów,128,51.15114,18.38802,PPL,2010-10-13,74,1017,101708,,Wrocław,3081368,0.2542992230800852,128,0,
46794,3103011,Bojanów,832,50.02886,18.16546,PPL,2010-10-13,83,2411,241103,,,,0.0,832,0,
22612,775672,Bojanów,1200,50.42531,21.95111,PPLA3,2012-10-01,80,1818,181802,,,,0.0,1200,0,
46787,3103004,Bojszowy,3219,50.0578,19.10145,PPLA3,2010-09-20,83,2414,241404,,Kraków,3094802,0.3821149158516577,3219,0,
46784,3103001,Bojszowy Nowe,1192,50.05284,19.05012,PPL,2010-10-23,83,2414,241404,,Kraków,3094802,0.3601232808811629,1192,0,
46782,3102999,Bolechowice,1515,50.14831,19.79273,PPL,2010-10-17,77,1206,120616,,Kraków,3094802,0.6552407351967459,1515,0,
46758,3102975,Boleszkowice,1316,52.72493,14.56901,PPLA3,2010-09-22,87,3210,321002,,,,0.0,1316,0,
22583,775643,Bolesław,539,50.27321,20.9008,PPL,2010-09-10,77,1204,120401,,Kraków,3094802,0.3098850109631921,539,0,
46776,3102993,Bolesław,497,50.00653,18.20203,PPL,2010-09-10,83,2411,241104,,,,0.0,497,0,
46775,3102992,Bolesław,2500,50.29729,19.48073,PPLA3,2010-10-20,77,1212,121203,,Kraków,3094802,0.2859539728291915,2500,0,
46771,3102988,Bolesławiec,1500,51.19866,18.19147,PPL,2010-09-09,74,1018,101801,,Wrocław,3081368,0.2796113686960247,1500,0,
52304,7534530,Bolesławiec,77,52.21278,16.77556,PPL,2010-09-09,86,3021,302110,,Poznań,3088171,0.42602982405226925,77,0,
46770,3102987,Bolesławiec,40682,51.26418,15.5697,PPLA3,2011-07-31,72,0201,020102,,,,0.0,40682,0,
22574,775634,Bolimów,930,52.07671,20.16352,PPLA3,2010-10-16,74,1015,101501,,Warszawa,6695624,0.3069209958295585,930,0,
46751,3102968,Bolków,178,51.31865,18.62801,PPL,2010-09-09,74,1017,101706,,Łódź,3093133,0.25482904166326453,178,0,
46752,3102969,Bolków,5304,50.92203,16.10111,PPLA3,2021-07-27,72,0205,020502,,Wrocław,3081368,0.3445971421494665,5304,0,
46744,3102961,Bolszewo,7064,54.61801,18.17585,PPL,2010-10-21,82,2215,221510,,,,0.0,7064,0,
46780,3102997,Bolęcin,1819,50.1175,19.48116,PPL,2010-10-21,77,1203,120305,,Kraków,3094802,0.3706519135314255,1819,0,
46739,3102956,Boniewo,700,52.46532,18.89116,PPLA3,2010-09-16,73,0418,041803,,Łódź,3093133,0.2639018284837073,700,0,
22534,775594,Borek,1200,50.01778,20.53087,PPL,2010-10-29,77,1201,120107,,Kraków,3094802,0.27760839698962475,1200,0,
46693,3102910,Borek Szlachecki,990,49.96469,19.77556,PPL,2010-10-23,77,1206,120611,,Kraków,3094802,0.6234233017399928,990,0,
46692,3102909,Borek Wielkopolski,2527,51.91674,17.24133,PPLA3,2020-05-10,86,3004,300401,,Poznań,3088171,0.29004305361685007,2527,0,
46690,3102907,Borgowo,110,52.05502,17.05061,PPL,2010-10-19,86,3026,302604,,Poznań,3088171,0.4291342807356929,110,0,
22501,775561,Borki,732,51.72161,22.52129,PPLA3,2011-07-31,75,0615,061502,,,,0.0,732,0,
46668,3102885,Borkowice,188,52.20845,16.78591,PPL,2010-09-19,86,3021,302110,,Poznań,3088171,0.4239103070647989,188,0,
46669,3102886,Borkowice,588,50.74107,17.7158,PPL,2010-09-19,79,1601,160104,,Wrocław,3081368,0.2734844435287006,588,0,
52582,7535609,Borkowice,943,50.94104,18.15787,PPL,2010-09-19,79,1604,160402,,Wrocław,3081368,0.2835946995917289,943,0,
22473,775533,Borkowice,658,51.32025,20.68339,PPLA3,2010-09-19,78,1423,142301,,,,0.0,658,0,
46662,3102879,Borkowo Łostowickie,507,54.2991,18.59539,PPL,2010-10-21,82,2204,220404,,,,0.0,507,0,
28114,3084213,Borne Sulinowo,4349,53.57661,16.53395,PPLA3,2010-10-28,87,3215,321504,,,,0.0,4349,0,
46653,3102869,Boronów,2793,50.6746,18.90678,PPL,2010-09-06,83,2407,240702,,Kraków,3094802,0.2467123831512507,2793,0,
22453,775513,Borowa,1451,50.38548,21.3515,PPL,2010-09-12,80,1811,181102,,,,0.0,1451,0,
46629,3102845,Borowe,471,51.48384,15.12663,PPL,2022-03-24,76,0810,081004,,,,0.0,471,0,
22433,775493,Borowie,400,51.94908,21.7658,PPLA3,2010-09-17,78,1403,140303,,Warszawa,6695624,0.32884603950464125,400,0,
46603,3102819,Borowno,1364,50.93247,19.2738,PPL,2010-10-21,83,2404,240411,,,,0.0,1364,0,
46575,3102791,Borucin,1247,50.00763,18.15748,PPL,2010-09-06,83,2411,241103,,,,0.0,1247,0,
46557,3102773,Borysławice,517,51.65275,18.4269,PPL,2010-10-15,74,1014,101402,,Łódź,3093133,0.27258272291847924,517,0,
22365,775424,Borzechów,390,51.09258,22.28414,PPLA3,2010-10-11,75,0609,060902,,,,0.0,390,0,
46514,3102730,Borzyszkowy,243,54.03318,17.3735,PPL,2010-10-30,82,2201,220105,,,,0.0,243,0,
46512,3102728,Borzytuchom,902,54.20021,17.36801,PPLA3,2010-09-24,82,2201,220101,,,,0.0,902,0,
22364,775423,Borzęcin,3865,50.0654,20.71103,PPLA3,2010-09-16,77,1202,120201,,Kraków,3094802,0.40980611746569245,3865,0,
46531,3102747,Borzęta,1269,49.86228,19.97924,PPL,2010-10-17,77,1209,120903,,Kraków,3094802,0.511396327914543,1269,0,
46650,3102866,Borów,900,50.88341,16.99134,PPL,2010-09-12,72,0217,021701,,Wrocław,3081368,0.4457221212966379,900,0,
46511,3102727,Boszkowo,200,51.97561,16.32962,PPL,2018-07-30,86,3013,301307,,Poznań,3088171,0.2634444578835618,200,0,
46488,3102704,Bozkow,1600,50.51315,16.57528,PPL,2018-11-15,72,0208,020811,,Wrocław,3081368,0.3206572928882714,1600,0,
22693,775754,Boćki,1500,52.65155,23.04485,PPL,2010-09-05,81,2003,200304,,,,0.0,1500,0,
53045,7602730,Boża Wola,700,52.1864,20.52444,PPL,2010-11-27,78,1405,140503,,Warszawa,6695624,0.5093638511949321,700,0,
22328,775386,Boże,220,51.69624,21.13409,PPL,2010-09-12,78,1401,140105,,Warszawa,6695624,0.319822967912054,220,0,
52574,7535577,Bralin,198,53.26901,16.01326,PPL,2010-10-16,87,3203,320303,,,,0.0,198,0,
46470,3102686,Bralin,2500,51.28581,17.90325,PPLA3,2010-10-16,86,3008,300802,,Wrocław,3081368,0.26373796010892836,2500,0,
46463,3102679,Branice,2300,50.05108,17.79399,PPLA3,2010-09-25,79,1602,160202,,,,0.0,2300,0,
46461,3102677,Braniewo,18356,54.37971,19.81959,PPLA2,2020-09-19,85,2802,280201,,,,0.0,18356,0,
22301,775359,Brańsk,3822,52.7444,22.83774,PPLA3,2011-07-31,81,2003,200305,,,,0.0,3822,0,
22300,775358,Brańszczyk,1109,52.62931,21.58745,PPL,2010-09-12,78,1435,143501,,Warszawa,6695624,0.33829989652786235,1109,0,
46442,3102658,Brdów,1050,52.3539,18.7298,PPL,2010-10-15,86,3009,300902,,Łódź,3093133,0.2825999240651006,1050,0,
46436,3102652,Brenna,5859,49.72576,18.90249,PPLA3,2010-10-17,83,2403,240304,,Kraków,3094802,0.2622449371142787,5859,0,
46434,3102650,Brenno,1200,51.92257,16.21488,PPL,2010-10-16,86,3013,301306,,Poznań,3088171,0.3108336258777763,1200,0,
22277,775334,Brochów,400,52.3195,20.26257,PPLA3,2011-07-31,78,1428,142802,,Warszawa,6695624,0.361329620321894,400,0,
46411,3102627,Brodnica,27341,53.25967,19.39653,PPL,2010-09-14,73,0402,040201,,,,0.0,27341,0,
46412,3102628,Brodnica,722,52.14123,16.89096,PPLA3,2010-10-16,86,3026,302601,,Poznań,3088171,0.34839915512377395,722,0,
22257,775314,Brody,81,53.35783,23.13266,PPL,2010-10-06,81,2011,201103,,,,0.0,81,0,
22258,775315,Brody,205,52.60448,20.38041,PPL,2010-10-06,78,1420,142009,,Warszawa,6695624,0.31679701621708267,205,0,
22259,775316,Brody,147,51.56336,21.25468,PPL,2010-10-06,78,1425,142504,,Warszawa,6695624,0.3414301309830611,147,0,
22260,775317,Brody,489,51.16734,20.35346,PPL,2010-10-06,84,2605,260503,,Łódź,3093133,0.24929082522075569,489,0,
22262,775319,Brody,180,50.68493,20.69721,PPL,2010-10-06,84,2604,260415,,Kraków,3094802,0.2915985043122538,180,0,
46393,3102609,Brody,307,53.86053,18.76061,PPL,2010-10-06,82,2214,221402,,,,0.0,307,0,
46396,3102612,Brody,724,52.43867,16.29498,PPL,2010-10-06,86,3015,301502,,Poznań,3088171,0.40089649775299063,724,0,
46397,3102613,Brody,750,52.06115,15.43433,PPL,2010-10-06,76,0809,080906,,,,0.0,750,0,
46398,3102614,Brody,60,51.965,18.32108,PPL,2010-10-06,86,3027,302705,,Łódź,3093133,0.28423785648257033,60,0,
46400,3102616,Brody,2577,49.86742,19.69746,PPL,2010-10-06,77,1218,121803,,Kraków,3094802,0.437835771658042,2577,0,
22261,775318,Brody,1737,51.02466,21.22147,PPLA3,2010-10-06,84,2611,261102,,,,0.0,1737,0,
46399,3102615,Brody,1070,51.79046,14.77335,PPLA3,2010-10-16,76,0811,081103,,,,0.0,1070,0,
49445,7522516,Brody-Parcele,1600,52.47797,20.74974,PPL,2010-09-28,78,1414,141405,,Warszawa,6695624,0.5309935281686256,1600,0,
46418,3102634,Brodła,1005,50.04331,19.58879,PPL,2010-10-21,77,1203,120301,,Kraków,3094802,0.4736062261269107,1005,0,
46381,3102597,Brojce,1248,53.95705,15.35975,PPLA3,2010-09-22,87,3205,320501,,,,0.0,1248,0,
22247,775304,Brok,1896,52.69948,21.85704,PPL,2019-09-05,78,1416,141604,,Warszawa,6695624,0.34421940486326924,1896,0,
52613,7535721,Broniszewice,1102,51.96696,17.81648,PPL,2010-09-23,86,3020,302002,,Poznań,3088171,0.28636588975100463,1102,0,
46338,3102554,Bronów,100,50.92776,16.219,PPL,2010-09-09,72,0219,021903,,Wrocław,3081368,0.2863005234157081,100,0,
46339,3102555,Bronów,1012,49.87782,18.92103,PPL,2010-09-09,83,2402,240204,,Kraków,3094802,0.29598252171921174,1012,0,
46296,3102511,Brudzew,470,51.92971,17.98737,PPL,2010-10-15,86,3007,300701,,Poznań,3088171,0.26335002552723646,470,0,
46295,3102510,Brudzew,1620,52.09949,18.60432,PPLA3,2010-10-15,86,3027,302702,,Łódź,3093133,0.2893982555806375,1620,0,
46298,3102513,Brudzeń Duży,939,52.66884,19.50399,PPLA3,2010-09-18,78,1419,141903,,,,0.0,939,0,
46273,3102488,Brusy,4728,53.88446,17.71786,PPL,2010-09-12,82,2202,220202,,,,0.0,4728,0,
22168,775224,Brwinów,12315,52.14269,20.71697,PPLA3,2010-09-28,78,1421,142103,,Warszawa,6695624,0.6300065625383863,12315,0,
46244,3102459,Brzeg,38259,50.86079,17.4674,PPLA2,2019-09-05,79,1601,160101,,Wrocław,3081368,0.2605366716084154,38259,0,
46241,3102456,Brzeg Dolny,12511,51.27299,16.70815,PPL,2021-11-19,72,0222,022201,,Wrocław,3081368,0.37156474377398957,12511,0,
22127,775183,Brzesko,16866,49.96911,20.60606,PPLA2,2017-10-30,77,1202,120202,,Kraków,3094802,0.4540797075409045,16866,0,
46229,3102444,Brzeszcze,11787,49.98203,19.15157,PPL,2019-09-05,77,1213,121302,,Kraków,3094802,0.40006162878529883,11787,0,
46219,3102434,Brzezie,820,50.12278,19.82311,PPL,2010-10-17,77,1206,120616,,Kraków,3094802,0.7279114395456635,820,0,
46200,3102415,Brzezina,450,51.2022,16.83329,PPL,2010-10-21,72,0218,021803,,Wrocław,3081368,0.549183262805685,450,0,
46196,3102411,Brzezinka,727,49.83798,19.30624,PPL,2010-10-17,77,1218,121801,,Kraków,3094802,0.43565514808887473,727,0,
46193,3102408,Brzezinka,605,50.13637,19.73917,PPL,2010-10-21,77,1206,120616,,Kraków,3094802,0.6121054976473596,605,0,
46194,3102409,Brzezinka,2100,50.04237,19.1902,PPL,2010-10-23,77,1213,121306,,Kraków,3094802,0.42290955491653526,2100,0,
22088,775144,Brzeziny,294,53.23897,22.53716,PPL,2010-09-09,81,2008,200807,,,,0.0,294,0,
22099,775155,Brzeziny,2015,50.77273,20.57319,PPL,2010-09-09,84,2604,260412,,Kraków,3094802,0.2787682153435117,2015,0,
46176,3102391,Brzeziny,860,51.59595,18.25541,PPL,2010-09-09,86,3007,300702,,Łódź,3093133,0.2666456113101415,860,0,
46175,3102390,Brzeziny,12289,51.80023,19.75144,PPLA2,2010-10-15,74,1021,102101,,Łódź,3093133,0.5627662296756978,12289,0,
22062,775118,Brzezowa,750,49.85697,20.05623,PPL,2010-10-17,77,1209,120901,,Kraków,3094802,0.4824974165031691,750,0,
22056,775112,Brzezówka,357,50.21876,21.73714,PPL,2020-04-06,80,1806,180602,,,,0.0,357,0,
46232,3102447,Brześć Kujawski,4522,52.60532,18.90173,PPLA3,2017-12-10,73,0418,041804,,,,0.0,4522,0,
22077,775133,Brzeźnica,195,52.72096,22.82075,PPL,2010-09-09,81,2003,200305,,,,0.0,195,0,
22078,775134,Brzeźnica,397,51.55466,21.63551,PPL,2010-09-09,78,1407,140705,,Warszawa,6695624,0.2972599859495208,397,0,
22079,775135,Brzeźnica,121,51.26959,20.48169,PPL,2010-09-09,84,2605,260502,,Łódź,3093133,0.2545695290117194,121,0,
22080,775136,Brzeźnica,2800,50.10065,21.48025,PPL,2010-09-09,80,1803,180304,,,,0.0,2800,0,
22081,775137,Brzeźnica,124,50.08066,20.81411,PPL,2010-09-09,77,1216,121605,,Kraków,3094802,0.36378176436035103,124,0,
22082,775138,Brzeźnica,1171,49.95763,20.49139,PPL,2010-09-09,77,1201,120102,,Kraków,3094802,0.2897370892002161,1171,0,
46152,3102366,Brzeźnica,286,53.89382,16.88513,PPL,2010-09-09,87,3215,321503,,,,0.0,286,0,
46153,3102367,Brzeźnica,205,53.43408,16.69647,PPL,2010-09-09,86,3031,303102,,,,0.0,205,0,
46154,3102368,Brzeźnica,874,51.71437,15.39348,PPL,2010-09-09,76,0810,081003,,,,0.0,874,0,
46155,3102369,Brzeźnica,145,51.42442,18.70199,PPL,2010-09-09,74,1014,101405,,Łódź,3093133,0.3116639964832619,145,0,
46156,3102371,Brzeźnica,649,50.53989,16.73218,PPL,2010-09-09,72,0224,022401,,Wrocław,3081368,0.2544051085781544,649,0,
46157,3102372,Brzeźnica,281,50.44739,17.69468,PPL,2010-09-09,79,1610,161001,,Wrocław,3081368,0.25994354315078066,281,0,
46158,3102373,Brzeźnica,597,50.14792,18.22134,PPL,2010-09-09,83,2411,241108,,,,0.0,597,0,
46159,3102374,Brzeźnica,1281,49.96497,19.61952,PPL,2010-09-09,77,1218,121802,,Kraków,3094802,0.4714295099711443,1281,0,
22075,775131,Brzeźnica Bychawska,541,51.52776,22.75123,PPL,2010-09-09,75,0608,060809,,,,0.0,541,0,
22073,775129,Brzeźnica Leśna,323,51.56304,22.68617,PPL,2010-09-09,75,0608,060809,,,,0.0,323,0,
46148,3102362,Brzeźnio,1150,51.494,18.62234,PPLA3,2010-10-15,74,1014,101404,,Łódź,3093133,0.3085046710646878,1150,0,
46136,3102350,Brzeżno,970,53.69925,15.79199,PPL,2018-08-26,87,3216,321602,,,,0.0,970,0,
46121,3102335,Brzoskwinia,900,50.09438,19.71256,PPL,2010-10-21,77,1206,120616,,Kraków,3094802,0.6113976168943658,900,0,
46119,3102333,Brzostek,70,52.17356,17.2227,PPL,2010-09-27,86,3025,302505,,Poznań,3088171,0.3126462391474672,70,0,
46120,3102334,Brzostek,129,50.7119,19.77736,PPL,2010-09-27,83,2416,241608,,Kraków,3094802,0.3068855137226038,129,0,
22054,775110,Brzostek,2599,49.87954,21.41102,PPLA3,2012-10-01,80,1803,180302,,,,0.0,2599,0,
46102,3102316,Brzozie,1578,53.32554,19.60485,PPL,2010-09-14,73,0402,040204,,,,0.0,1578,0,
46100,3102314,Brzozie Lubawskie,555,53.34317,19.56459,PPL,2010-10-20,85,2812,281204,,,,0.0,555,0,
22021,775077,Brzozowa Gać,589,51.39771,22.17942,PPL,2010-09-27,75,0614,061406,,,,0.0,589,0,
22016,775072,Brzozowiec,44,49.42753,22.20019,PPL,2015-09-05,80,1817,181707,,,,0.0,44,0,
22030,775086,Brzozów,7836,49.69501,22.01926,PPLA2,2012-10-01,80,1802,180201,,,,0.0,7836,0,
46082,3102296,Brzozówka,380,50.17371,19.89641,PPL,2010-10-21,77,1206,120617,,Kraków,3094802,0.6809425484289757,380,0,
46069,3102283,Brzuze,449,53.05458,19.26195,PPLA3,2010-09-16,73,0412,041202,,,,0.0,449,0,
21954,775010,Brzyska,1900,49.82226,21.39004,PPLA3,2010-09-24,80,1805,180502,,,,0.0,1900,0,
52948,7576751,Brzyskorzystewko,790,52.89228,17.69194,PPL,2019-04-06,73,0419,041906,,Poznań,3088171,0.30159868267701134,790,0,
22051,775107,Brzóstowa,720,50.89058,21.48273,PPL,2010-10-16,84,2607,260704,,,,0.0,720,0,
22042,775098,Brzóza Królewska,3400,50.23908,22.32559,PPL,2010-10-17,80,1808,180804,,,,0.0,3400,0,
22041,775097,Brzóza Stadnicka,1200,50.19965,22.28233,PPL,2010-10-17,80,1810,181007,,,,0.0,1200,0,
22154,775210,Brzączowice,1230,49.87478,20.03709,PPL,2010-10-17,77,1209,120901,,Kraków,3094802,0.5174069694242376,1230,0,
46382,3102598,Brójce,1050,52.31745,15.67414,PPL,2010-10-15,76,0803,080306,,Poznań,3088171,0.2514137580131607,1050,0,
46383,3102599,Brójce,385,51.66436,19.64802,PPLA3,2010-10-15,74,1006,100603,,Łódź,3093133,0.6068042284479376,385,0,
46457,3102673,Brąszewice,1100,51.49902,18.44982,PPLA3,2010-10-15,74,1014,101403,,Łódź,3093133,0.2560004728274467,1100,0,
21937,774993,Buczek,402,51.46042,20.29939,PPL,2010-10-16,74,1007,100706,,Łódź,3093133,0.3069887623363348,402,0,
46045,3102258,Buczek,303,54.03807,16.10561,PPL,2010-10-16,87,3201,320102,,,,0.0,303,0,
46048,3102261,Buczek,980,51.50228,19.16419,PPLA3,2010-10-16,74,1003,100301,,Łódź,3093133,0.33645556861523457,980,0,
46039,3102252,Buczkowice,4102,49.72858,19.06908,PPL,2010-09-06,83,2402,240203,,Kraków,3094802,0.31126648175440036,4102,0,
21900,774956,Budry,420,54.25299,21.88107,PPL,2010-09-09,85,2819,281901,,,,0.0,420,0,
52859,7576221,Budziechów,457,51.77246,14.99531,PPL,2010-10-16,76,0811,081104,,,,0.0,457,0,
45979,3102192,Budziska,846,50.20328,18.2785,PPL,2010-10-20,83,2411,241105,,,,0.0,846,0,
52867,7576233,Budzisko,34,54.2989,23.10421,PPL,2010-10-16,81,2012,201208,,,,0.0,34,0,
45967,3102180,Budziszewice,90,52.67102,17.06142,PPL,2010-10-15,86,3028,302805,,Poznań,3088171,0.33597659438860555,90,0,
45968,3102181,Budziszewice,880,51.66739,19.93581,PPLA3,2010-10-15,74,1016,101603,,Łódź,3093133,0.3664787440056434,880,0,
45953,3102166,Budzyń,300,50.05196,19.78303,PPL,2010-10-21,77,1206,120607,,Kraków,3094802,0.7186557230633903,300,0,
45949,3102162,Budzyń,4861,52.88954,16.98812,PPLA3,2011-07-31,86,3001,300102,,Poznań,3088171,0.32029902052731263,4861,0,
45956,3102169,Budzów,214,51.02504,18.35412,PPL,2010-09-23,79,1608,160802,,Wrocław,3081368,0.2618928253157859,214,0,
45957,3102170,Budzów,181,50.90417,19.74621,PPL,2010-09-23,74,1012,101214,,Kraków,3094802,0.26495783396394323,181,0,
45958,3102171,Budzów,1100,50.59337,16.71038,PPL,2010-09-23,72,0224,022404,,Wrocław,3081368,0.2825959360887959,1100,0,
45959,3102172,Budzów,2400,49.77622,19.67274,PPLA3,2010-09-23,77,1215,121503,,Kraków,3094802,0.330418505128457,2400,0,
45934,3102147,Bujaków,2176,49.85182,19.19432,PPL,2010-09-06,83,2402,240208,,Kraków,3094802,0.3922819179961756,2176,0,
45925,3102138,Buk,6102,52.35532,16.51958,PPLA3,2019-09-05,86,3021,302103,,Poznań,3088171,0.3639079115914394,6102,0,
45887,3102100,Bukowiec,1210,53.43383,18.24048,PPL,2010-09-13,73,0414,041401,,,,0.0,1210,0,
21743,774797,Bukowiec Opoczyński,669,51.41682,20.26583,PPL,2010-10-01,74,1007,100704,,Łódź,3093133,0.3028725910892099,669,0,
21736,774790,Bukowina Tatrzańska,2700,49.34302,20.10807,PPLA3,2010-09-17,77,1217,121703,,Kraków,3094802,0.27135447439693366,2700,0,
45864,3102076,Bukowno,10874,50.26474,19.45962,PPL,2010-09-22,77,1212,121201,,Kraków,3094802,0.29397513762864697,10874,0,
21722,774776,Bukowsko,1700,49.48039,22.06329,PPLA3,2010-09-25,80,1817,181703,,,,0.0,1700,0,
45919,3102132,Buków,621,49.94603,19.84612,PPL,2010-11-03,77,1206,120609,,Kraków,3094802,0.6498230155006915,621,0,
21728,774782,Bukówno,360,51.54537,20.85145,PPL,2010-09-07,78,1401,140103,,Warszawa,6695624,0.3333687473406832,360,0,
21716,774770,Bulkowo,266,52.54087,20.11889,PPLA3,2010-09-18,78,1419,141904,,Warszawa,6695624,0.2599616894947458,266,0,
52570,7535567,Bulkowo-Kolonia,380,52.53763,20.10412,PPL,2010-09-18,78,1419,141904,,Warszawa,6695624,0.2564664970379983,380,0,
45846,3102058,Bulowice,4700,49.8765,19.28873,PPL,2010-10-17,77,1213,121304,,Kraków,3094802,0.44130818629552904,4700,0,
45834,3102046,Burzenin,1100,51.46077,18.83233,PPLA3,2010-10-15,74,1014,101405,,Łódź,3093133,0.3697739453167485,1100,0,
45837,3102049,Burów,370,50.09471,19.77247,PPL,2010-11-03,77,1206,120616,,Kraków,3094802,0.6918112052830573,370,0,
21694,774747,Busko-Zdrój,17095,50.47078,20.71884,PPLA2,2010-10-12,84,2601,260101,,Kraków,3094802,0.3136357614775426,17095,0,
21677,774730,Bychawa,5297,51.01608,22.53296,PPLA3,2010-10-09,75,0609,060903,,,,0.0,5297,0,
45807,3102019,Byczyna,3665,51.11387,18.21413,PPLA3,2010-09-25,79,1604,160401,,Wrocław,3081368,0.275579655000403,3665,0,
45802,3102014,Bydgoszcz,366452,53.1235,18.00762,PPLA,2021-12-22,73,0461,046101,,,,0.0,366452,0,
21658,774711,Bystra,1519,49.66235,21.08628,PPL,2010-09-22,77,1205,120504,,Kraków,3094802,0.2689822167354223,1519,0,
45777,3101988,Bystra,380,54.30411,18.75984,PPL,2010-09-22,82,2204,220404,,,,0.0,380,0,
45780,3101992,Bystra,2900,49.64796,19.77994,PPL,2010-09-22,77,1215,121504,,Kraków,3094802,0.465935949487,2900,0,
45782,3101994,Bystra,946,49.62028,19.18788,PPL,2010-09-23,83,2417,241710,,Kraków,3094802,0.3092741745023054,946,0,
45776,3101987,Bystra,3887,49.76042,19.05973,PPL,2021-02-09,83,2402,240210,,Kraków,3094802,0.31721968315921967,3887,0,
21654,774707,Bystre,585,50.37875,22.39597,PPL,2010-10-17,80,1812,181204,,,,0.0,585,0,
21644,774697,Bystrzyca,581,51.77437,22.31366,PPL,2010-09-29,75,0611,061110,,,,0.0,581,0,
21645,774698,Bystrzyca,396,51.3098,22.70582,PPL,2010-09-29,75,0609,060914,,,,0.0,396,0,
21646,774699,Bystrzyca,920,50.98945,22.40833,PPL,2010-09-29,75,0607,060710,,,,0.0,920,0,
21647,774700,Bystrzyca,944,49.97811,21.72881,PPL,2010-09-29,80,1815,181501,,,,0.0,944,0,
45763,3101973,Bystrzyca,53,52.63311,17.98333,PPL,2010-09-29,73,0409,040903,,Poznań,3088171,0.29656126023698887,53,0,
45764,3101974,Bystrzyca,62,52.08404,17.99088,PPL,2010-09-29,86,3010,301002,,Poznań,3088171,0.2732897422626762,62,0,
45765,3101975,Bystrzyca,304,51.03033,15.7253,PPL,2010-09-29,72,0212,021205,,Wrocław,3081368,0.2654944742843917,304,0,
45766,3101976,Bystrzyca,2200,50.96048,17.39702,PPL,2015-09-02,72,0215,021504,,Wrocław,3081368,0.3707562138625128,2200,0,
45758,3101968,Bystrzyca Kłodzka,10375,50.30179,16.64231,PPL,2010-09-12,72,0208,020806,,Wrocław,3081368,0.2609268297120013,10375,0,
45741,3101951,Bytnica,1200,52.15066,15.16946,PPLA3,2010-10-16,76,0802,080203,,,,0.0,1200,0,
45740,3101950,Bytom,189186,50.34802,18.93282,PPLA3,2019-09-05,83,2462,246201,,Kraków,3094802,0.28301666395003744,189186,0,
45737,3101947,Bytom Odrzański,4408,51.73062,15.82362,PPLA3,2015-09-07,76,0804,080402,,,,0.0,4408,0,
45736,3101946,Bytoń,436,52.55757,18.59522,PPLA3,2010-09-15,73,0411,041102,,,,0.0,436,0,
45733,3101943,Bytów,16724,54.17057,17.49187,PPLA2,2010-09-24,82,2201,220102,,,,0.0,16724,0,
47735,3103958,Bądkowo,863,52.705,18.78739,PPL,2010-09-14,73,0401,040105,,,,0.0,863,0,
47703,3103926,Bąków,1517,49.89342,18.71495,PPL,2010-09-06,83,2403,240311,,Kraków,3094802,0.2855724680906705,1517,0,
47535,3103756,Bębło,1092,50.18053,19.78741,PPL,2010-10-17,77,1206,120615,,Kraków,3094802,0.6007671998441761,1092,0,
47530,3103751,Bęczarka,1013,49.87793,19.86723,PPL,2010-10-23,77,1209,120903,,Kraków,3094802,0.5326174362405055,1013,0,
47464,3103684,Bęczyn,502,49.93531,19.66038,PPL,2010-10-23,77,1218,121802,,Kraków,3094802,0.48360910696122206,502,0,
47523,3103743,Będków,125,51.47107,18.75143,PPL,2010-10-15,74,1014,101405,,Łódź,3093133,0.345327228578755,125,0,
47522,3103742,Będków,550,51.58763,19.74956,PPLA3,2010-10-15,74,1016,101602,,Łódź,3093133,0.43770588700499197,550,0,
47499,3103719,Będzin,58236,50.32607,19.12565,PPLA2,2010-10-27,83,2401,240101,,Kraków,3094802,0.3514933658744058,58236,0,
47497,3103717,Będzino,544,54.21,15.99086,PPL,2010-09-07,87,3209,320901,,,,0.0,544,0,
47044,3103261,Błaszki,2132,51.65163,18.43472,PPLA3,2010-10-15,74,1014,101402,,Łódź,3093133,0.27504204440298574,2132,0,
22804,775866,Błażowa,2129,49.88521,22.10037,PPLA3,2012-10-01,80,1816,181602,,,,0.0,2129,0,
22760,775821,Błonie,214,52.17467,23.33689,PPL,2010-09-19,75,0601,060105,,,,0.0,214,0,
22762,775823,Błonie,322,50.5913,21.61165,PPL,2010-09-19,84,2609,260904,,,,0.0,322,0,
22764,775825,Błonie,653,50.21349,21.48402,PPL,2010-09-19,80,1811,181107,,,,0.0,653,0,
22765,775826,Błonie,576,49.95199,20.90321,PPL,2010-09-19,77,1216,121609,,Kraków,3094802,0.3224266320110367,576,0,
46994,3103211,Błonie,550,52.07666,19.13621,PPL,2010-09-19,74,1004,100405,,Łódź,3093133,0.2946934381802772,550,0,
46995,3103212,Błonie,27,50.94853,19.82311,PPL,2010-09-19,74,1012,101213,,Kraków,3094802,0.24946236359614885,27,0,
22759,775820,Błonie,12195,52.19849,20.61709,PPLA3,2010-09-19,78,1432,143201,,Warszawa,6695624,0.5753840020424361,12195,0,
47050,3103267,Błądzikowo,188,54.69824,18.4306,PPL,2010-10-21,82,2211,221107,,,,0.0,188,0,
22798,775860,Błędów,1098,51.77767,20.69798,PPL,2010-09-28,78,1406,140602,,Warszawa,6695624,0.34629950833593826,1098,0,
45709,3101919,Cedry Wielkie,1007,54.24707,18.84567,PPL,2010-09-13,82,2204,220402,,,,0.0,1007,0,
45708,3101918,Cedynia,1622,52.87931,14.20249,PPLA3,2010-10-16,87,3206,320602,,,,0.0,1622,0,
49103,6941564,Cegłów,192,52.16267,20.52452,PPL,2010-10-15,78,1405,140503,,Warszawa,6695624,0.5045566969969366,192,0,
21597,774649,Cegłów,2846,52.14782,21.73739,PPLA3,2010-10-15,78,1412,141204,,Warszawa,6695624,0.4004680226331557,2846,0,
45692,3101902,Cekcyn,1710,53.57294,18.01123,PPLA3,2010-09-16,73,0416,041601,,,,0.0,1710,0,
45689,3101899,Ceków,235,51.89223,18.29799,PPL,2010-09-09,86,3007,300703,,Łódź,3093133,0.28477850837910157,235,0,
52320,7534561,Ceków-Kolonia,402,51.89127,18.28022,PPL,2010-09-09,86,3007,300703,,Łódź,3093133,0.27963847295530603,402,0,
21589,774641,Celestynów,4007,52.06093,21.39107,PPLA3,2011-07-31,78,1417,141703,,Warszawa,6695624,0.5593315732968278,4007,0,
21576,774628,Ceranów,810,52.63082,22.22826,PPLA3,2010-09-19,78,1429,142903,,Warszawa,6695624,0.27431677187884806,810,0,
21574,774626,Cerekiew,441,51.40724,21.05392,PPL,2010-09-25,78,1425,142513,,Warszawa,6695624,0.27260886601018997,441,0,
21575,774627,Cerekiew,382,50.08683,20.49894,PPL,2010-09-25,77,1201,120102,,Kraków,3094802,0.29910890396666845,382,0,
45669,3101879,Cerkwica,1261,54.00777,15.10903,PPL,2010-10-21,87,3205,320503,,,,0.0,1261,0,
45667,3101877,Cesarzowice,415,51.10589,16.56738,PPL,2010-10-21,72,0218,021804,,Wrocław,3081368,0.3383250493147248,415,0,
45659,3101869,Cewice,1687,54.43551,17.73485,PPL,2010-09-12,82,2208,220803,,,,0.0,1687,0,
45646,3101856,Chałupki,1697,49.92559,18.3173,PPL,2010-09-06,83,2411,241104,,,,0.0,1697,0,
21506,774558,Chełm,63949,51.14312,23.4716,PPL,2021-11-19,75,0662,066201,,,,0.0,63949,0,
45579,3101788,Chełm Śląski,5646,50.10825,19.19552,PPLA3,2010-09-20,83,2414,241405,,Kraków,3094802,0.4242944321711723,5646,0,
45602,3101811,Chełmek,218,54.27319,19.18093,PPL,2010-09-09,82,2210,221004,,,,0.0,218,0,
52314,7534554,Chełmek,414,51.87925,15.88271,PPL,2014-03-26,76,0804,080405,,Poznań,3088171,0.2521109440060744,414,0,
45603,3101812,Chełmek,9059,50.10163,19.24801,PPLA3,2011-07-31,77,1213,121303,,Kraków,3094802,0.4510855479015194,9059,0,
21502,774554,Chełmiec,2657,49.63051,20.66425,PPL,2010-09-11,77,1210,121002,,Kraków,3094802,0.31882318989662684,2657,0,
45586,3101795,Chełmno,20576,53.34855,18.4251,PPL,2019-09-05,73,0404,040401,,,,0.0,20576,0,
49442,7521312,Chełmno nad Nerem,350,52.11283,18.75126,PPL,2010-10-30,86,3009,300904,,Łódź,3093133,0.3304028770351281,350,0,
45581,3101790,Chełmsko,479,52.58084,15.56291,PPL,2010-10-16,76,0803,080303,,Poznań,3088171,0.2488907141653835,479,0,
45578,3101787,Chełmża,15403,53.18463,18.60466,PPLA3,2010-09-16,73,0415,041501,,,,0.0,15403,0,
21483,774535,Chlewiska,1089,51.24376,20.76871,PPLA3,2010-09-19,78,1430,143001,,,,0.0,1089,0,
21444,774496,Chmielew,272,51.81817,21.34764,PPL,2010-10-30,78,1407,140706,,Warszawa,6695624,0.3819811383866517,272,0,
21455,774507,Chmielewo Wielkie,164,53.20603,20.5719,PPL,2010-11-03,78,1413,141309,,,,0.0,164,0,
21451,774503,Chmielnik,290,51.20097,22.19075,PPL,2010-10-12,75,0609,060901,,,,0.0,290,0,
21452,774504,Chmielnik,3926,50.6144,20.75206,PPLA3,2010-10-01,84,2604,260404,,Kraków,3094802,0.25599837177056495,3926,0,
21453,774505,Chmielnik,3466,49.97386,22.14535,PPLA3,2010-10-12,80,1816,181604,,,,0.0,3466,0,
45526,3101735,Chmielno,358,53.92501,16.49022,PPL,2010-09-13,87,3209,320903,,,,0.0,358,0,
45527,3101736,Chmielno,375,51.14129,15.61089,PPL,2010-09-13,72,0212,021203,,,,0.0,375,0,
45525,3101734,Chmielno,1580,54.32543,18.0986,PPLA3,2010-10-19,82,2205,220501,,,,0.0,1580,0,
45431,3101639,Chmielowice,1500,50.64957,17.86669,PPL,2010-10-21,79,1609,160904,,Wrocław,3081368,0.30013955289047334,1500,0,
45517,3101726,Choceń,980,52.48618,19.01339,PPLA3,2010-09-16,73,0418,041805,,Łódź,3093133,0.2693816090641768,980,0,
45513,3101722,Chocianów,8187,51.41867,15.90172,PPL,2010-09-10,72,0216,021601,,Wrocław,3081368,0.2592986090316615,8187,0,
45488,3101697,Chociwel,3266,53.46696,15.33342,PPLA3,2010-09-22,87,3214,321402,,,,0.0,3266,0,
45486,3101695,Chocz,1700,51.97642,17.86995,PPLA3,2010-10-16,86,3020,302001,,Poznań,3088171,0.27629360491935856,1700,0,
45484,3101693,Choczewo,1310,54.73993,17.89175,PPL,2010-09-14,82,2215,221504,,,,0.0,1310,0,
45482,3101691,Chocznia,5510,49.87417,19.45438,PPL,2010-10-17,77,1218,121809,,Kraków,3094802,0.2986180294172275,5510,0,
45480,3101689,Chodecz,1902,52.40513,19.02759,PPLA3,2014-06-27,73,0418,041806,,Łódź,3093133,0.255968188970103,1902,0,
21420,774472,Chodel,1500,51.11177,22.13269,PPLA3,2010-10-16,75,0612,061201,,,,0.0,1500,0,
45471,3101680,Chodzież,19776,52.99505,16.9198,PPLA3,2019-09-05,86,3001,300101,,Poznań,3088171,0.2506302402584859,19776,0,
45475,3101684,Chodów,830,52.24961,19.01218,PPLA3,2010-10-14,86,3009,300903,,Łódź,3093133,0.3335363671590945,830,0,
45465,3101674,Chojna,241,52.99986,17.28064,PPL,2010-10-16,86,3028,302803,,Poznań,3088171,0.3242059069575769,241,0,
45467,3101676,Chojna,32,52.02113,14.9051,PPL,2010-10-16,76,0802,080206,,,,0.0,32,0,
45466,3101675,Chojna,7398,52.96389,14.42797,PPLA3,2010-10-16,87,3206,320603,,,,0.0,7398,0,
45463,3101672,Chojnice,39407,53.69554,17.55701,PPL,2019-01-29,82,2202,220201,,,,0.0,39407,0,
45458,3101667,Chojno,867,51.62569,17.00898,PPL,2015-09-05,86,3022,302204,,Wrocław,3081368,0.296128769861256,867,0,
21379,774431,Chojnów,240,52.03502,21.07332,PPL,2010-09-09,78,1418,141804,,Warszawa,6695624,0.6548260574789707,240,0,
45452,3101660,Chojnów,14209,51.27373,15.93661,PPLA3,2015-09-01,72,0209,020902,,Wrocław,3081368,0.29159461672175335,14209,0,
45443,3101651,Cholerzyn,940,50.05945,19.76406,PPL,2010-10-17,77,1206,120607,,Kraków,3094802,0.6910677560537304,940,0,
21367,774419,Cholewiana Góra,884,50.34995,22.07514,PPL,2010-10-17,80,1812,181203,,,,0.0,884,0,
45437,3101645,Chomętowo,256,54.03706,15.17384,PPL,2010-10-12,87,3205,320508,,,,0.0,256,0,
45438,3101646,Chomętowo,289,53.20855,15.80332,PPL,2010-10-12,87,3202,320203,,,,0.0,289,0,
45439,3101647,Chomętowo,270,52.93441,17.77193,PPL,2010-10-12,73,0410,041005,,Poznań,3088171,0.2690656358137291,270,0,
45440,3101648,Chomętowo,191,52.5644,19.82964,PPL,2010-10-12,78,1419,141910,,Warszawa,6695624,0.28075956215872394,191,0,
52492,7535418,Chomętowo,185,52.95257,15.66539,PPL,2010-10-12,76,0806,080601,,,,0.0,185,0,
21344,774396,Chorkówka,784,49.64668,21.67156,PPLA3,2010-09-25,80,1807,180701,,,,0.0,784,0,
21341,774393,Choroszcz,5449,53.14332,22.98889,PPLA3,2014-06-26,81,2002,200201,,,,0.0,5449,0,
45427,3101635,Choroń,1221,50.68178,19.26058,PPL,2010-09-06,83,2409,240904,,Kraków,3094802,0.2578087773091058,1221,0,
21336,774388,Chorzele,115,52.91708,22.28422,PPL,2010-09-19,81,2014,201405,,,,0.0,115,0,
21335,774387,Chorzele,2807,53.26075,20.89728,PPLA3,2014-06-27,78,1422,142202,,,,0.0,2807,0,
45411,3101619,Chorzów,113430,50.30582,18.9742,PPLA3,2019-09-05,83,2463,246301,,Kraków,3094802,0.3043731326433835,113430,0,
45405,3101613,Choszczno,15733,53.16905,15.42054,PPLA3,2019-09-05,87,3202,320202,,,,0.0,15733,0,
52528,7535495,Chotcza,270,51.24043,21.77662,PPLA3,2010-09-17,78,1409,140901,,,,0.0,270,0,
21306,774357,Chotylub,530,50.23798,23.22664,PPL,2010-10-23,80,1809,180902,,,,0.0,530,0,
45375,3101583,Chrosna,485,50.08017,19.7226,PPL,2010-10-21,77,1206,120607,,Kraków,3094802,0.629774888001764,485,0,
45369,3101577,Chrostkowo,314,52.94378,19.25328,PPLA3,2010-09-15,73,0408,040803,,,,0.0,314,0,
45379,3101587,Chrościna,1585,50.66578,17.81759,PPL,2010-10-21,79,1609,160902,,Wrocław,3081368,0.3184632622076997,1585,0,
45345,3101553,Chruszczobród,1648,50.4147,19.32718,PPL,2010-09-06,83,2416,241605,,Kraków,3094802,0.3891131729056743,1648,0,
21254,774305,Chrzanów,241,50.40212,20.9965,PPL,2010-09-09,84,2601,260104,,Kraków,3094802,0.25627439391906065,241,0,
45339,3101547,Chrzanów,39973,50.13546,19.40203,PPL,2012-10-01,77,1203,120303,,Kraków,3094802,0.31030348530603197,39973,0,
21253,774304,Chrzanów,3506,50.77256,22.60351,PPLA3,2010-10-14,75,0605,060502,,,,0.0,3506,0,
45305,3101513,Chrzypsko Wielkie,920,52.62817,16.22852,PPLA3,2010-10-16,86,3014,301401,,Poznań,3088171,0.3226854148502274,920,0,
45323,3101531,Chrząstowice,1200,50.66622,18.07294,PPL,2010-09-12,79,1609,160901,,Wrocław,3081368,0.2549168750161957,1200,0,
45322,3101530,Chrząstowo,420,52.06642,17.12889,PPL,2010-10-19,86,3026,302603,,Poznań,3088171,0.4270549234118913,420,0,
45384,3101592,Chróścice,3000,50.78076,17.81227,PPL,2010-09-20,79,1609,160903,,Wrocław,3081368,0.25797764242096083,3000,0,
45378,3101586,Chróścina,627,51.74393,16.54009,PPL,2010-10-20,72,0204,020401,,Wrocław,3081368,0.2892720387259121,627,0,
52889,7576332,Chróścina,1736,50.62306,17.36861,PPL,2013-10-30,79,1607,160709,,Wrocław,3081368,0.2989708412660467,1736,0,
45263,3101471,Chwaszczyno,2678,54.44379,18.41875,PPL,2010-10-21,82,2205,220508,,,,0.0,2678,0,
21214,774265,Chwałowice,1100,50.76665,21.88683,PPL,2010-10-19,80,1818,181804,,,,0.0,1100,0,
52793,7536013,Chwałowice,225,51.04517,17.38329,PPL,2010-10-19,72,0215,021503,,Wrocław,3081368,0.4320248094850226,225,0,
45259,3101467,Chybie,3775,49.90249,18.82756,PPL,2010-09-06,83,2403,240305,,Kraków,3094802,0.26955854030761905,3775,0,
21202,774253,Chylice,858,52.07845,21.06251,PPL,2010-10-30,78,1418,141804,,Warszawa,6695624,0.7180629881225714,858,0,
21200,774251,Chyliczki,672,52.08518,21.07002,PPL,2010-10-30,78,1418,141804,,Warszawa,6695624,0.7275635696729841,672,0,
21192,774243,Chynów,400,51.90425,21.08208,PPLA3,2011-07-31,78,1406,140603,,Warszawa,6695624,0.4974233950682035,400,0,
45245,3101453,Chyżne,1069,49.42672,19.66956,PPL,2010-10-30,77,1211,121105,,Kraków,3094802,0.3072155587194199,1069,0,
45620,3101829,Chąśno,287,52.19535,19.94259,PPLA3,2010-10-16,74,1005,100503,,Łódź,3093133,0.36336434303100873,287,0,
21519,774571,Chęciny,429,51.86875,21.74606,PPL,2010-10-12,78,1403,140305,,Warszawa,6695624,0.3033069069906554,429,0,
45611,3101820,Chęciny,34,51.90668,14.83841,PPL,2010-10-12,76,0802,080205,,,,0.0,34,0,
21520,774572,Chęciny,4252,50.80021,20.46229,PPLA3,2010-10-12,84,2604,260403,,Kraków,3094802,0.2821366207737821,4252,0,
45569,3101778,Chłapowo,1069,54.80365,18.37352,PPL,2010-10-21,82,2211,221104,,,,0.0,1069,0,
21478,774530,Chłopice,941,49.94873,22.67475,PPL,2010-09-12,80,1804,180403,,,,0.0,941,0,
45238,3101446,Ciasna,1722,50.75427,18.60835,PPL,2010-09-06,83,2407,240703,,,,0.0,1722,0,
21176,774227,Cichawa,564,49.95111,20.26746,PPL,2010-11-03,77,1219,121902,,Kraków,3094802,0.44970356712659443,564,0,
21157,774207,Ciechanowiec,4946,52.67828,22.49815,PPL,2010-09-10,81,2013,201302,,,,0.0,4946,0,
21158,774208,Ciechanów,46438,52.88141,20.61996,PPLA2,2017-09-04,78,1402,140201,,Warszawa,6695624,0.3360095896961954,46438,0,
45220,3101428,Ciechocin,776,53.05581,18.92635,PPLA3,2010-09-14,73,0405,040502,,,,0.0,776,0,
45218,3101426,Ciechocinek,10832,52.87908,18.79505,PPLA3,2017-08-29,73,0401,040102,,,,0.0,10832,0,
45212,3101420,Ciechów,1500,51.13218,16.56773,PPL,2010-10-21,72,0218,021804,,Wrocław,3081368,0.33657052585685515,1500,0,
43187,3099378,Cielmice,1200,50.08826,19.01896,PPL,2010-10-20,83,2477,247701,,Kraków,3094802,0.34722098028478665,1200,0,
21136,774186,Cielądz,1000,51.71576,20.34428,PPLA3,2010-10-01,74,1013,101303,,Warszawa,6695624,0.3470750384464985,1000,0,
45194,3101401,Cielętniki,550,51.29762,17.20833,PPL,2015-09-05,72,0220,022005,,Wrocław,3081368,0.4330165198626617,550,0,
45182,3101389,Ciemnik,151,53.39827,15.57252,PPL,2010-09-07,87,3214,321405,,,,0.0,151,0,
45166,3101373,Ciepielowice,403,50.69983,17.75013,PPL,2010-10-21,79,1609,160902,,Wrocław,3081368,0.24732546984801396,403,0,
45168,3101375,Ciepielów,169,51.76293,15.67861,PPL,2010-09-17,76,0804,080405,,,,0.0,169,0,
21108,774158,Ciepielów,770,51.24838,21.57475,PPLA3,2022-12-26,78,1409,140902,,,,0.0,770,0,
45162,3101369,Cieplewo,710,54.23423,18.65238,PPL,2010-10-21,82,2204,220404,,,,0.0,710,0,
45160,3101367,Cieplice Śląskie Zdrój,15000,50.86545,15.68367,PPL,2013-11-23,72,0261,026101,,,,0.0,15000,0,
45158,3101365,Ciepłowody,1200,50.67477,16.90871,PPL,2010-09-12,72,0224,022402,,Wrocław,3081368,0.36763617362869777,1200,0,
21080,774129,Cieszacin Wielki,810,49.99406,22.5939,PPL,2010-10-13,80,1804,180406,,,,0.0,810,0,
21079,774128,Cieszanów,1935,50.24564,23.13163,PPLA3,2012-10-01,80,1809,180902,,,,0.0,1935,0,
45123,3101330,Cieszków,1800,51.63104,17.35726,PPL,2010-09-13,72,0213,021301,,Wrocław,3081368,0.26849301019276245,1800,0,
45114,3101321,Cieszyn,35586,49.75133,18.63213,PPLA3,2019-09-05,83,2403,240301,,Kraków,3094802,0.24734076323764334,35586,0,
45101,3101308,Cigacice,750,52.0365,15.6132,PPL,2010-10-30,76,0809,080906,,,,0.0,750,0,
45087,3101294,Cisek,1485,50.28232,18.19988,PPLA3,2010-09-25,79,1603,160303,,,,0.0,1485,0,
45082,3101289,Cisiec,3296,49.59213,19.1054,PPL,2010-09-06,83,2417,241715,,Kraków,3094802,0.27843957107947415,3296,0,
21041,774090,Cisna,460,49.21328,22.32795,PPLA3,2012-10-01,80,1821,182102,,,,0.0,460,0,
45070,3101277,Cisownica,1705,49.72276,18.76207,PPL,2018-06-24,83,2403,240307,,Kraków,3094802,0.27439057319072574,1705,0,
45243,3101451,Ciągowice,616,50.44707,19.36443,PPL,2010-10-30,83,2416,241605,,Kraków,3094802,0.3852881446366456,616,0,
45207,3101415,Cięcina,4373,49.6022,19.14102,PPL,2010-09-06,83,2417,241715,,Kraków,3094802,0.2906507893226501,4373,0,
21067,774116,Ciężkowice,2395,49.78575,20.97324,PPLA3,2012-10-01,77,1216,121601,,Kraków,3094802,0.27371307280692264,2395,0,
21009,774058,Cmolas,4000,50.29526,21.74417,PPLA3,2010-10-13,80,1806,180601,,,,0.0,4000,0,
45049,3101255,Cybinka,2655,52.19446,14.79567,PPLA3,2010-10-16,76,0805,080501,,,,0.0,2655,0,
45046,3101252,Cychry,993,52.69319,14.70494,PPL,2010-11-21,87,3210,321003,,,,0.0,993,0,
20981,774030,Cyców,1200,51.29928,23.14124,PPLA3,2010-10-16,75,0610,061001,,,,0.0,1200,0,
32146,3088271,Cynków,1198,50.56203,19.11956,PPL,2010-09-07,83,2409,240902,,Kraków,3094802,0.27323964743826545,1198,0,
20956,774005,Czachów,131,51.8239,20.92089,PPL,2015-09-05,78,1406,140606,,Warszawa,6695624,0.41504797356513895,131,0,
45019,3101224,Czajków,1100,51.49197,18.32726,PPLA3,2010-10-16,86,3018,301801,,Łódź,3093133,0.2717232816721689,1100,0,
45015,3101220,Czaniec,5536,49.85071,19.25354,PPL,2010-09-06,83,2402,240208,,Kraków,3094802,0.41708054227368446,5536,0,
20929,773978,Czaplinek,323,51.94786,21.1377,PPL,2010-09-07,78,1418,141801,,Warszawa,6695624,0.5394406072735861,323,0,
44999,3101204,Czaplinek,6933,53.55775,16.23333,PPL,2010-09-07,87,3203,320301,,,,0.0,6933,0,
45000,3101205,Czaplinek,252,51.88804,19.50331,PPL,2010-09-07,74,1020,102009,,Łódź,3093133,0.6755433858554766,252,0,
44996,3101201,Czapury,1256,52.31719,16.91268,PPL,2010-09-28,86,3021,302110,,Poznań,3088171,0.699696229377368,1256,0,
44993,3101198,Czarków,1924,50.01833,18.90678,PPL,2010-10-20,83,2410,241005,,Kraków,3094802,0.3044465104020042,1924,0,
44988,3101193,Czarlin,806,54.05213,18.76156,PPL,2010-09-17,82,2214,221406,,,,0.0,806,0,
20908,773957,Czarna,700,52.36837,21.22627,PPL,2010-10-17,78,1434,143412,,Warszawa,6695624,0.6932192943642442,700,0,
20916,773965,Czarna,1600,50.10979,22.18165,PPLA3,2010-09-27,80,1810,181003,,,,0.0,1600,0,
20917,773966,Czarna,2474,50.06717,21.25614,PPLA3,2010-09-27,80,1803,180303,,Kraków,3094802,0.2667537022746496,2474,0,
20919,773968,Czarna,792,49.33116,22.65896,PPLA3,2010-11-28,80,1801,180103,,,,0.0,792,0,
20892,773941,Czarna Białostocka,9592,53.30509,23.28146,PPLA3,2011-07-31,81,2002,200202,,,,0.0,9592,0,
52624,7535732,Czarna Dąbrówka,1112,54.35631,17.56456,PPLA3,2010-09-24,82,2201,220103,,,,0.0,1112,0,
20886,773935,Czarna Góra,1506,49.37662,20.13047,PPL,2010-09-27,77,1217,121703,,Kraków,3094802,0.2867382804330728,1506,0,
44965,3101170,Czarna Woda,3227,53.84458,18.10006,PPL,2010-09-13,82,2213,221301,,,,0.0,3227,0,
44956,3101161,Czarne,6035,53.6842,16.93834,PPLA3,2010-09-14,82,2203,220302,,,,0.0,6035,0,
20854,773902,Czarnia,457,53.35614,21.1952,PPLA3,2010-09-18,78,1415,141502,,,,0.0,457,0,
44940,3101145,Czarnków,11562,52.90214,16.56413,PPLA3,2020-06-21,86,3002,300202,,Poznań,3088171,0.2789490917340963,11562,0,
20850,773898,Czarnochowice,1245,50.00471,20.0679,PPL,2010-10-29,77,1219,121905,,Kraków,3094802,0.7124217027502916,1245,0,
20845,773893,Czarnocin,509,53.21364,22.07737,PPL,2010-10-10,81,2007,200705,,,,0.0,509,0,
20846,773894,Czarnocin,181,52.90916,20.38573,PPL,2010-10-10,78,1413,141305,,Warszawa,6695624,0.29273502053273864,181,0,
20847,773895,Czarnocin,76,52.34876,21.70881,PPL,2010-10-10,78,1412,141206,,Warszawa,6695624,0.41063189711722786,76,0,
20848,773896,Czarnocin,297,51.5276,20.80999,PPL,2010-10-10,78,1401,140103,,Warszawa,6695624,0.3219745290237281,297,0,
44934,3101138,Czarnocin,265,54.03883,18.41712,PPL,2010-10-10,82,2213,221309,,,,0.0,265,0,
44935,3101139,Czarnocin,340,53.72048,14.55543,PPL,2010-10-10,87,3204,320407,,,,0.0,340,0,
52823,7576010,Czarnocin,170,50.44993,18.24034,PPL,2010-10-10,79,1611,161104,,,,0.0,170,0,
20849,773897,Czarnocin,410,50.3408,20.5162,PPLA3,2010-10-10,84,2603,260302,,Kraków,3094802,0.43459685697348804,410,0,
44932,3101136,Czarnocin,1300,51.59142,19.68158,PPLA3,2010-10-10,74,1010,101002,,Łódź,3093133,0.4828362066572176,1300,0,
44931,3101135,Czarnogłowy,977,53.76776,14.90922,PPL,2010-10-30,87,3204,320406,,,,0.0,977,0,
44924,3101128,Czarnowąsy,3108,50.72858,17.89819,PPL,2010-09-20,79,1609,160903,,Wrocław,3081368,0.3176613522281225,3108,0,
44916,3101120,Czarnożyły,1300,51.28533,18.56106,PPL,2010-09-06,74,1017,101702,,Łódź,3093133,0.2798798681523428,1300,0,
44913,3101117,Czarny Bór,4769,50.77083,16.1305,PPLA3,2015-09-04,72,0221,022104,,Wrocław,3081368,0.3190113904677174,4769,0,
44910,3101114,Czarny Dunajec,3594,49.43663,19.85161,PPLA3,2012-10-01,77,1211,121103,,Kraków,3094802,0.3245188809897289,3594,0,
20834,773882,Czarnów,600,52.05629,21.0977,PPL,2010-10-30,78,1418,141802,,Warszawa,6695624,0.6814475006801766,600,0,
44885,3101089,Czastary,1024,51.25869,18.31953,PPLA3,2010-10-15,74,1018,101802,,Wrocław,3081368,0.2668611924320562,1024,0,
20785,773833,Czaszyn,1433,49.44854,22.2165,PPL,2014-04-14,80,1817,181707,,,,0.0,1433,0,
20784,773832,Czchów,2256,49.83726,20.68056,PPLA3,2012-10-01,77,1202,120203,,Kraków,3094802,0.38732459864669944,2256,0,
44872,3101076,Czechowice-Dziedzice,34703,49.91342,19.00479,PPLA3,2011-07-31,83,2402,240204,,Kraków,3094802,0.3304535522716225,34703,0,
44853,3101057,Czeladź,34308,50.31542,19.07824,PPLA3,2011-07-31,83,2401,240102,,Kraków,3094802,0.33746012703852274,34308,0,
20760,773808,Czemierniki,3700,51.67298,22.63887,PPL,2010-09-04,75,0615,061503,,,,0.0,3700,0,
44849,3101053,Czempiń,5093,52.14404,16.76408,PPLA3,2011-07-31,86,3011,301102,,Poznań,3088171,0.32830602091611016,5093,0,
20754,773802,Czeremcha,2640,52.51667,23.35,PPLA3,2011-07-31,81,2005,200503,,,,0.0,2640,0,
20751,773799,Czerkasy,238,50.53034,23.70884,PPL,2010-10-14,75,0618,061806,,,,0.0,238,0,
20749,773797,Czermin,1557,50.33911,21.33356,PPL,2010-09-12,80,1811,181103,,,,0.0,1557,0,
20712,773760,Czermin,197,50.77012,21.79061,PPL,2010-10-16,84,2609,260902,,,,0.0,197,0,
44835,3101039,Czermin,200,51.33276,17.85768,PPL,2010-10-16,86,3008,300802,,Wrocław,3081368,0.26964975948587405,200,0,
44834,3101038,Czermin,789,51.95008,17.74957,PPLA3,2010-10-16,86,3020,302002,,Poznań,3088171,0.29683389498671825,789,0,
20746,773794,Czermno,850,51.10988,20.02687,PPL,2011-06-25,84,2605,260501,,Łódź,3093133,0.280746190607897,850,0,
44824,3101028,Czerna,367,51.53224,15.23701,PPL,2022-03-24,76,0810,081004,,,,0.0,367,0,
44815,3101019,Czernica,2100,50.08391,18.40068,PPL,2010-09-28,83,2412,241202,,,,0.0,2100,0,
44813,3101017,Czernica,1186,51.04609,17.2451,PPLA3,2010-10-19,72,0223,022301,,Wrocław,3081368,0.5876165498570108,1186,0,
20732,773780,Czernice Borowe,480,53.03197,20.71944,PPLA3,2010-09-19,78,1422,142203,,Warszawa,6695624,0.2760846691267884,480,0,
20731,773779,Czernichów,285,50.11871,20.22403,PPL,2010-09-10,77,1214,121401,,Kraków,3094802,0.5250849969848714,285,0,
44806,3101010,Czernichów,1021,49.75443,19.20947,PPL,2010-09-10,83,2417,241702,,Kraków,3094802,0.3661557665035917,1021,0,
44805,3101009,Czernichów,1707,49.9892,19.68115,PPLA3,2010-10-23,77,1206,120601,,Kraków,3094802,0.5498582656255624,1707,0,
44802,3101006,Czerniejewo,2612,52.4264,17.48925,PPLA3,2010-10-15,86,3003,300302,,Poznań,3088171,0.25908525807330507,2612,0,
44800,3101004,Czerniewice,1027,52.51157,19.08694,PPL,2022-10-24,73,0418,041805,,Łódź,3093133,0.2654173508878682,1027,0,
20717,773765,Czerniewice,730,51.65419,20.15553,PPLA3,2010-10-15,74,1016,101604,,Łódź,3093133,0.4216724404024597,730,0,
44790,3100994,Czernikowo,2752,52.94688,18.93803,PPLA3,2010-09-16,73,0415,041503,,,,0.0,2752,0,
20711,773759,Czersk,590,51.95876,21.23108,PPL,2015-09-05,78,1418,141801,,Warszawa,6695624,0.5320597979750114,590,0,
44780,3100984,Czersk,9390,53.79589,17.97647,PPL,2019-01-29,82,2202,220204,,,,0.0,9390,0,
44772,3100976,Czerwieńsk,4197,52.01289,15.42317,PPLA3,2010-10-16,76,0809,080903,,,,0.0,4197,0,
20705,773753,Czerwin,700,52.94905,21.75842,PPLA3,2010-09-18,78,1415,141503,,Warszawa,6695624,0.26938451581854217,700,0,
44770,3100974,Czerwionka-Leszczyny,28740,50.15007,18.67762,PPLA3,2010-09-20,83,2412,241201,,Kraków,3094802,0.28162104198992555,28740,0,
20703,773751,Czerwińsk Nad Wisłą,1200,52.39828,20.3096,PPLA3,2010-09-18,78,1420,142004,,Warszawa,6695624,0.36732983842759437,1200,0,
44767,3100971,Czerwonak,5432,52.46459,16.98169,PPLA3,2010-10-16,86,3021,302104,,Poznań,3088171,0.7711721798792537,5432,0,
20686,773734,Czerwonka,310,54.19634,23.0161,PPL,2010-09-18,81,2012,201208,,,,0.0,310,0,
20687,773735,Czerwonka,1090,53.91627,20.89685,PPL,2010-09-18,85,2814,281402,,,,0.0,1090,0,
20688,773736,Czerwonka,78,53.88461,22.23229,PPL,2010-09-18,85,2805,280505,,,,0.0,78,0,
20689,773737,Czerwonka,312,53.5763,23.21239,PPL,2010-09-18,81,2011,201109,,,,0.0,312,0,
20691,773739,Czerwonka,120,52.38561,22.15462,PPL,2010-09-18,78,1429,142908,,Warszawa,6695624,0.33514424588986724,120,0,
20692,773740,Czerwonka,134,52.35178,21.87133,PPL,2010-09-18,78,1433,143309,,Warszawa,6695624,0.3347996796470607,134,0,
20693,773741,Czerwonka,79,51.75095,21.20679,PPL,2010-09-18,78,1407,140704,,Warszawa,6695624,0.35316744215439266,79,0,
20694,773742,Czerwonka,244,51.70054,20.11185,PPL,2010-09-18,74,1016,101611,,Łódź,3093133,0.26605438992562663,244,0,
20690,773738,Czerwonka,150,52.89254,21.21494,PPLA3,2010-09-18,78,1411,141102,,Warszawa,6695624,0.24682921975792518,150,0,
52529,7535525,Czerwonka Szlachecka,154,52.89311,21.22284,PPL,2010-09-18,78,1411,141102,,Warszawa,6695624,0.35123326508406955,154,0,
52533,7535529,Czerwonka-Parcel,502,52.21586,20.26481,PPL,2010-09-18,78,1428,142807,,Warszawa,6695624,0.36727185629824216,502,0,
44747,3100951,Czestków,290,51.55,19.15,PPL,2019-08-09,74,1003,100301,,Łódź,3093133,0.3735332299724791,290,0,
20659,773707,Czorsztyn,365,49.43776,20.32692,PPL,2010-09-11,77,1211,121104,,Kraków,3094802,0.2990631293317028,365,0,
20656,773704,Czosnów,420,52.39138,20.72976,PPL,2010-11-27,78,1414,141402,,Warszawa,6695624,0.595653414614576,420,0,
20647,773695,Czudec,2900,49.94487,21.84134,PPLA3,2010-10-13,80,1819,181901,,,,0.0,2900,0,
44708,3100912,Czułów,1119,50.05956,19.70106,PPL,2010-10-21,77,1206,120607,,Kraków,3094802,0.6038597872999542,1119,0,
44706,3100910,Czułówek,420,50.04204,19.68166,PPL,2010-10-21,77,1206,120601,,Kraków,3094802,0.5770433438396764,420,0,
20629,773677,Czyże,590,52.7713,23.42319,PPL,2010-09-05,81,2005,200504,,,,0.0,590,0,
20628,773676,Czyżew,2670,52.79768,22.31237,PPLA3,2017-06-29,81,2013,201303,,,,0.0,2670,0,
44687,3100891,Czyżowice,3128,49.9849,18.40433,PPL,2010-09-06,83,2415,241506,,,,0.0,3128,0,
44688,3100892,Czyżówek,535,51.50853,15.16113,PPL,2022-03-24,76,0810,081004,,,,0.0,535,0,
20788,773836,Cząstków Mazowiecki,169,52.39205,20.74596,PPL,2010-11-27,78,1414,141402,,Warszawa,6695624,0.6046757755507924,169,0,
53097,7602783,Cząstków Polski,290,52.38888,20.75918,PPL,2010-11-27,78,1414,141402,,Warszawa,6695624,0.6151428037802512,290,0,
44742,3100946,Częstochowa,248125,50.79646,19.12409,PPLA3,2019-09-05,83,2464,246401,,,,0.0,248125,0,
44732,3100936,Człopa,2370,53.08856,16.12098,PPLA3,2011-07-31,87,3217,321702,,Poznań,3088171,0.24889082831881093,2370,0,
44729,3100933,Człuchów,14759,53.66722,17.35883,PPL,2010-09-12,82,2203,220301,,,,0.0,14759,0,
44490,3100694,Dalachów,1295,51.07732,18.5784,PPL,2011-06-25,79,1608,160806,,,,0.0,1295,0,
20409,773456,Dalekie,319,52.71784,21.53964,PPL,2010-11-03,78,1435,143502,,Warszawa,6695624,0.30185001282470375,319,0,
20406,773453,Daleszyce,2932,50.80229,20.80791,PPLA3,2010-10-06,84,2604,260405,,,,0.0,2932,0,
44481,3100685,Dalików,410,51.88476,19.11904,PPLA3,2010-10-15,74,1011,101101,,Łódź,3093133,0.44216115865224825,410,0,
44473,3100677,Damasławek,2500,52.83979,17.50062,PPLA3,2011-07-31,86,3028,302802,,Poznań,3088171,0.27133167818788273,2500,0,
20397,773444,Damienice,760,49.99218,20.39698,PPL,2010-10-17,77,1201,120102,,Kraków,3094802,0.3630058283912629,760,0,
44467,3100671,Damnica,1240,54.50025,17.27154,PPLA3,2010-09-24,82,2212,221202,,,,0.0,1240,0,
44438,3100642,Dargomyśl,598,52.70661,14.64666,PPL,2010-11-21,87,3210,321003,,,,0.0,598,0,
44433,3100637,Darłowo,14398,54.42095,16.4107,PPL,2019-10-10,87,3213,321301,,,,0.0,14398,0,
44420,3100624,Daszewice,1422,52.30002,16.95723,PPL,2010-09-28,86,3021,302110,,Poznań,3088171,0.6520395295748791,1422,0,
44415,3100619,Daszyna,600,52.15503,19.18153,PPLA3,2010-10-14,74,1004,100402,,Łódź,3093133,0.4330265289916437,600,0,
20356,773403,Dawidy,450,52.13517,20.97599,PPL,2010-10-30,78,1421,142106,,Warszawa,6695624,0.7966382169401602,450,0,
44285,3100489,Debrzno,5251,53.53817,17.23643,PPL,2020-01-03,82,2203,220304,,,,0.0,5251,0,
44261,3100465,Deszczno,1100,52.66988,15.31975,PPLA3,2010-10-16,76,0801,080103,,,,0.0,1100,0,
44200,3100403,Dmosin,1500,51.92437,19.75934,PPLA3,2010-10-16,74,1021,102103,,Łódź,3093133,0.4620485239116887,1500,0,
20129,773176,Dobczyce,6171,49.88109,20.08936,PPLA3,2010-10-17,77,1209,120901,,Kraków,3094802,0.5040434100945275,6171,0,
44197,3100400,Dobiegniew,3179,52.96947,15.75362,PPLA3,2011-07-31,76,0806,080601,,,,0.0,3179,0,
44189,3100392,Dobieszczyzna,746,52.02715,17.6734,PPL,2010-09-23,86,3006,300604,,Poznań,3088171,0.24776752294951926,746,0,
44180,3100382,Dobieszowice,1891,50.39697,19.01304,PPL,2010-09-06,83,2401,240104,,Kraków,3094802,0.29549019822963973,1891,0,
44181,3100383,Dobieszowice,614,50.36255,18.02599,PPL,2010-09-06,79,1605,160504,,,,0.0,614,0,
44176,3100378,Dobków,490,50.98761,15.95661,PPL,2010-10-20,72,0226,022604,,Wrocław,3081368,0.3033772308332431,490,0,
20115,773162,Dobra,140,52.52322,20.10447,PPL,2010-09-21,78,1419,141904,,Warszawa,6695624,0.26010905241616133,140,0,
20116,773163,Dobra,270,50.5967,21.19666,PPL,2010-09-21,84,2612,261207,,,,0.0,270,0,
20117,773164,Dobra,490,50.19556,22.68561,PPL,2010-09-21,80,1814,181407,,,,0.0,490,0,
20119,773166,Dobra,350,49.64618,22.2995,PPL,2010-09-21,80,1817,181705,,,,0.0,350,0,
44160,3100362,Dobra,130,54.38236,17.3681,PPL,2010-09-21,82,2212,221203,,,,0.0,130,0,
44166,3100368,Dobra,510,51.86992,19.56176,PPL,2010-09-21,74,1020,102008,,Łódź,3093133,0.688262030732912,510,0,
44167,3100369,Dobra,274,51.5237,19.0587,PPL,2010-09-21,74,1003,100303,,Łódź,3093133,0.30799818270824003,274,0,
44168,3100370,Dobra,359,51.27464,15.5151,PPL,2010-09-21,72,0201,020102,,,,0.0,359,0,
44169,3100371,Dobra,302,50.47335,19.67703,PPL,2010-09-21,83,2416,241607,,Kraków,3094802,0.45076357707231984,302,0,
44170,3100372,Dobra,750,50.45177,17.90737,PPL,2010-09-21,79,1605,160503,,Wrocław,3081368,0.25425468048005695,750,0,
20118,773165,Dobra,3100,49.71793,20.25347,PPLA3,2010-09-21,77,1207,120703,,Kraków,3094802,0.26369263184327324,3100,0,
44162,3100364,Dobra,950,53.48835,14.38617,PPLA3,2010-09-21,87,3211,321101,,,,0.0,950,0,
44161,3100363,Dobra,2336,53.58625,15.30977,PPLA3,2019-09-05,87,3218,321801,,,,0.0,2336,0,
44164,3100366,Dobra,1450,51.91664,18.61556,PPLA3,2019-09-05,86,3027,302703,,Łódź,3093133,0.33813037779629385,1450,0,
20104,773151,Dobra Wola,48,53.99859,22.15719,PPL,2010-09-21,85,2805,280505,,,,0.0,48,0,
20105,773152,Dobra Wola,205,53.0883,20.22068,PPL,2010-09-21,78,1413,141303,,,,0.0,205,0,
20106,773153,Dobra Wola,166,52.56644,20.63275,PPL,2010-09-21,78,1414,141404,,Warszawa,6695624,0.4182802607767013,166,0,
44155,3100357,Dobrcz,891,53.26547,18.14813,PPL,2010-09-13,73,0403,040303,,,,0.0,891,0,
44153,3100355,Dobre,2500,52.68398,18.57762,PPLA3,2010-09-15,73,0411,041103,,,,0.0,2500,0,
20102,773149,Dobre,1627,52.32097,21.67881,PPLA3,2010-10-17,78,1412,141206,,Warszawa,6695624,0.43224457659460014,1627,0,
20101,773148,Dobre Miasto,10514,53.98668,20.39749,PPL,2015-09-05,85,2814,281403,,,,0.0,10514,0,
44144,3100346,Dobrocin,800,50.73406,16.70677,PPL,2010-10-20,72,0202,020205,,Wrocław,3081368,0.3784766980655035,800,0,
44140,3100342,Dobrodzień,4014,50.72874,18.44501,PPLA3,2011-07-31,79,1608,160801,,,,0.0,4014,0,
44130,3100332,Dobromierz,800,50.91142,16.24174,PPL,2010-09-09,72,0219,021903,,Wrocław,3081368,0.2915783562138424,800,0,
44105,3100307,Dobroszyce,960,51.14457,19.41138,PPL,2010-09-06,74,1012,101202,,Łódź,3093133,0.2904210240042861,960,0,
44104,3100306,Dobroszyce,2376,51.26776,17.34205,PPL,2015-09-01,72,0214,021403,,Wrocław,3081368,0.3873399758887115,2376,0,
44125,3100327,Dobroń,1210,51.63885,19.24539,PPLA3,2010-10-15,74,1008,100804,,Łódź,3093133,0.5281603182411273,1210,0,
44095,3100297,Dobrzany,2360,53.35914,15.42886,PPLA3,2010-09-22,87,3214,321403,,,,0.0,2360,0,
52920,7576437,Dobrzejowice,405,51.71214,15.88606,PPL,2015-09-07,72,0203,020306,,,,0.0,405,0,
44081,3100283,Dobrzeń Wielki,4500,50.76844,17.84652,PPL,2010-09-12,79,1609,160903,,Wrocław,3081368,0.34612637006883545,4500,0,
44078,3100280,Dobrzyca,3254,51.86663,17.60336,PPL,2010-09-23,86,3020,302003,,Poznań,3088171,0.29626946578260877,3254,0,
52783,7535973,Dobrzykowice,786,51.09371,17.19223,PPL,2010-09-27,72,0223,022301,,Wrocław,3081368,0.6905329473037568,786,0,
20053,773100,Dobrzyniewo Duże,1200,53.20022,23.01129,PPL,2010-09-05,81,2002,200203,,,,0.0,1200,0,
44065,3100266,Dobrzyń nad Wisłą,2268,52.63814,19.31875,PPLA3,2010-09-15,73,0408,040804,,,,0.0,2268,0,
20043,773090,Dojazdów,728,50.12201,20.11236,PPL,2010-10-30,77,1206,120605,,Kraków,3094802,0.6524394929046559,728,0,
44046,3100247,Dolice,2028,53.19081,15.20267,PPLA3,2010-09-22,87,3214,321404,,,,0.0,2028,0,
44032,3100231,Dolsk,1527,51.9818,17.06273,PPL,2019-09-05,86,3026,302602,,Poznań,3088171,0.36118801569670606,1527,0,
20004,773050,Domanice,304,52.03739,22.17642,PPLA3,2010-09-19,78,1426,142601,,Warszawa,6695624,0.3210871932862912,304,0,
20001,773047,Domaniew,345,52.1874,20.76433,PPL,2010-11-27,78,1421,142103,,Warszawa,6695624,0.6896228940098795,345,0,
20000,773046,Domaniewek,183,52.19072,20.75489,PPL,2010-11-27,78,1421,142103,,Warszawa,6695624,0.6828136330720149,183,0,
44013,3100212,Domaniewice,906,52.00623,19.80294,PPLA3,2010-10-15,74,1005,100504,,Łódź,3093133,0.35823478576796625,906,0,
44009,3100207,Domaniów,759,50.89416,17.13009,PPL,2010-09-12,72,0215,021502,,Wrocław,3081368,0.4515998639366893,759,0,
44006,3100204,Domaradz,257,54.44559,17.27145,PPL,2010-09-24,82,2212,221202,,,,0.0,257,0,
44007,3100205,Domaradz,989,50.94837,17.86497,PPL,2010-09-24,79,1606,160603,,Wrocław,3081368,0.283577997932705,989,0,
19994,773040,Domaradz,3100,49.78675,21.94571,PPLA3,2010-09-24,80,1802,180202,,,,0.0,3100,0,
52897,7576413,Domaszczyn,378,51.18849,17.16579,PPL,2010-10-21,72,0223,022302,,Wrocław,3081368,0.6379090514137297,378,0,
19987,773033,Domaszowice,1003,50.87488,20.68288,PPL,2010-09-25,84,2604,260409,,,,0.0,1003,0,
43996,3100193,Domaszowice,1100,51.0429,17.88875,PPLA3,2010-09-25,79,1606,160601,,Wrocław,3081368,0.28628117237996265,1100,0,
44002,3100199,Domasław,737,51.01149,16.95628,PPL,2010-10-19,72,0223,022305,,Wrocław,3081368,0.6882207108985827,737,0,
43983,3100180,Dominowo,547,52.29158,17.35754,PPLA3,2010-10-16,86,3025,302501,,Poznań,3088171,0.3234765215195686,547,0,
43974,3100171,Dopiewo,2848,52.35726,16.67562,PPLA3,2011-07-31,86,3021,302105,,Poznań,3088171,0.52508129159417,2848,0,
19968,773014,Dorohusk,516,51.15475,23.80325,PPLA3,2010-11-04,75,0603,060304,,,,0.0,516,0,
15355,768370,Dorohusk-Osada,859,51.17063,23.79313,PPL,2010-11-04,75,0603,060304,,,,0.0,859,0,
43965,3100162,Doruchów,2400,51.41719,18.07697,PPLA3,2010-10-16,86,3018,301802,,Wrocław,3081368,0.2830821496383792,2400,0,
20031,773078,Dołhobyczów,1491,50.58591,24.03594,PPL,2010-09-09,75,0604,060402,,,,0.0,1491,0,
19954,773000,Draganowa,560,49.59067,21.62201,PPL,2022-01-04,80,1807,180701,,,,0.0,560,0,
43959,3100156,Dragasz,610,53.50607,18.73907,PPL,2020-06-05,73,0414,041402,,,,0.0,610,0,
43951,3100148,Drawno,2423,53.21986,15.75946,PPLA3,2011-07-31,87,3202,320203,,,,0.0,2423,0,
43945,3100142,Drawsko,1640,52.85421,16.03125,PPL,2010-09-28,86,3002,300203,,Poznań,3088171,0.2832487279521421,1640,0,
43942,3100139,Drawsko Pomorskie,11275,53.53056,15.80967,PPL,2019-09-05,87,3203,320302,,,,0.0,11275,0,
19936,772982,Drelów,900,51.91219,22.87165,PPLA3,2011-07-31,75,0601,060104,,,,0.0,900,0,
43934,3100131,Drewnica,840,54.28758,18.95665,PPL,2010-09-05,82,2210,221004,,,,0.0,840,0,
43930,3100127,Drezdenko,10541,52.83831,15.83079,PPLA3,2020-06-21,76,0806,080602,,Poznań,3088171,0.26804582059643234,10541,0,
43841,3100038,Dreżewo,139,54.04699,14.98917,PPL,2010-10-20,87,3205,320503,,,,0.0,139,0,
43927,3100124,Drobin,2938,52.73775,19.98928,PPLA3,2010-09-18,78,1419,141905,,Warszawa,6695624,0.27863379366811225,2938,0,
43924,3100121,Drochlin,600,50.72918,19.63943,PPL,2010-10-21,83,2404,240409,,Kraków,3094802,0.28781602940595746,600,0,
43919,3100116,Drogomyśl,2091,49.86964,18.75727,PPL,2010-09-06,83,2403,240311,,Kraków,3094802,0.295047180952818,2091,0,
19913,772959,Drohiczyn,2075,52.40011,22.65853,PPLA3,2014-06-27,81,2010,201002,,,,0.0,2075,0,
19912,772958,Drohobyczka,1000,49.8578,22.3558,PPL,2010-10-13,80,1813,181302,,,,0.0,1000,0,
43582,3099777,Drożów,70,51.6085,15.97116,PPL,2018-11-09,72,0216,021606,,Wrocław,3081368,0.26090570116378264,70,0,
43889,3100086,Drużbice,530,51.46369,19.39404,PPLA3,2010-10-15,74,1001,100103,,Łódź,3093133,0.3584571171527474,530,0,
43883,3100080,Drużyna,441,52.21103,16.82642,PPL,2015-09-05,86,3021,302110,,Poznań,3088171,0.443217730664261,441,0,
19877,772923,Drwinia,600,50.09795,20.44187,PPL,2010-09-10,77,1201,120103,,Kraków,3094802,0.3367208483498264,600,0,
43847,3100044,Drzewica,79,53.79518,14.96647,PPL,2010-10-01,87,3207,320702,,,,0.0,79,0,
52811,7536077,Drzewica,155,52.15993,15.11702,PPL,2010-10-01,76,0802,080203,,,,0.0,155,0,
19869,772915,Drzewica,3958,51.45085,20.47701,PPLA3,2010-10-01,74,1007,100702,,Warszawa,6695624,0.2598815836060778,3958,0,
43845,3100042,Drzewice,70,53.63059,16.82573,PPL,2010-11-21,86,3031,303105,,,,0.0,70,0,
52925,7576442,Drzonowo,963,54.09645,15.43596,PPL,2010-10-21,87,3208,320804,,,,0.0,963,0,
43830,3100027,Drzycim,1200,53.5052,18.3094,PPL,2010-09-13,73,0414,041403,,,,0.0,1200,0,
19859,772905,Dubeninki,962,54.28858,22.55922,PPL,2010-09-09,85,2818,281802,,,,0.0,962,0,
19854,772900,Dubicze Cerkiewne,270,52.64947,23.44259,PPL,2010-09-05,81,2005,200505,,,,0.0,270,0,
19851,772897,Dubiecko,1150,49.82608,22.39117,PPLA3,2010-09-25,80,1813,181302,,,,0.0,1150,0,
19850,772896,Dubienka,1042,51.04862,23.89252,PPL,2022-12-25,75,0603,060305,,,,0.0,1042,0,
49319,6957922,Duchnice,858,52.20161,20.79901,PPL,2010-11-27,78,1432,143206,,Warszawa,6695624,0.7255160473689726,858,0,
19828,772873,Duczki,2500,52.36271,21.29047,PPL,2010-10-17,78,1434,143412,,Warszawa,6695624,0.6591699448192597,2500,0,
19812,772857,Dukla,2126,49.55554,21.68317,PPLA3,2010-09-25,80,1807,180702,,,,0.0,2126,0,
43796,3099993,Duszniki,2100,52.44691,16.40602,PPLA3,2011-07-31,86,3024,302402,,Poznań,3088171,0.2801032976208299,2100,0,
43795,3099992,Duszniki-Zdrój,4888,50.40327,16.39091,PPLA3,2011-07-31,72,0208,020801,,Wrocław,3081368,0.27343796891508465,4888,0,
19778,772822,Dwikozy,1723,50.73613,21.78864,PPLA3,2010-09-27,84,2609,260902,,,,0.0,1723,0,
43772,3099968,Dychów,653,51.98647,15.06088,PPL,2010-11-21,76,0802,080202,,,,0.0,653,0,
19749,772793,Dydnia,1600,49.6864,22.17196,PPL,2010-09-24,80,1802,180203,,,,0.0,1600,0,
43770,3099966,Dygowo,1549,54.13031,15.71993,PPL,2010-09-07,87,3208,320802,,,,0.0,1549,0,
43761,3099957,Dymaczewo Nowe,284,52.22938,16.75445,PPL,2010-09-09,86,3021,302110,,Poznań,3088171,0.4404771957417372,284,0,
43760,3099956,Dymaczewo Stare,353,52.23002,16.77625,PPL,2010-09-09,86,3021,302110,,Poznań,3088171,0.45307255649965406,353,0,
19728,772772,Dynów,6065,49.81506,22.23388,PPLA3,2010-10-13,80,1816,181601,,,,0.0,6065,0,
19724,772768,Dywity,2300,53.83759,20.47817,PPL,2010-09-09,85,2814,281404,,,,0.0,2300,0,
43738,3099934,Dziadowa Kłoda,1174,51.23543,17.70919,PPL,2010-09-12,72,0214,021404,,Wrocław,3081368,0.35718041406416173,1174,0,
43732,3099928,Dział,495,49.48874,19.90721,PPL,2010-10-30,77,1211,121103,,Kraków,3094802,0.35766689470272106,495,0,
19704,772748,Działdowo,21127,53.23958,20.17004,PPLA3,2011-07-31,85,2803,280302,,,,0.0,21127,0,
19703,772747,Działoszyce,1040,50.36534,20.35226,PPLA3,2010-09-28,84,2608,260801,,Kraków,3094802,0.25994610041666805,1040,0,
43727,3099923,Działoszyn,6222,51.11699,18.86524,PPL,2011-06-25,74,1009,100901,,Łódź,3093133,0.2757494481532844,6222,0,
53093,7602779,Dziekanów Bajkowy,720,52.35791,20.85136,PPL,2010-11-27,78,1432,143205,,Warszawa,6695624,0.7009026877015685,720,0,
19678,772722,Dziekanów Leśny,1466,52.35243,20.85124,PPL,2010-11-27,78,1432,143205,,Warszawa,6695624,0.7066279195008336,1466,0,
43682,3099878,Dziemiany,1762,54.00636,17.76755,PPL,2010-09-13,82,2206,220602,,,,0.0,1762,0,
43677,3099873,Dziergowice,2556,50.24248,18.28606,PPL,2010-10-20,79,1603,160302,,,,0.0,2556,0,
19643,772687,Dzierzgowo,660,53.15279,20.66322,PPLA3,2010-09-18,78,1413,141302,,,,0.0,660,0,
43647,3099842,Dzierzgoń,5518,53.92196,19.34705,PPL,2010-09-25,82,2216,221601,,,,0.0,5518,0,
19654,772698,Dzierzążnia,442,52.62811,20.23364,PPLA3,2010-09-18,78,1420,142005,,Warszawa,6695624,0.26586880775683946,442,0,
43633,3099828,Dzierżoniów,34168,50.7282,16.65141,PPLA3,2016-09-01,72,0202,020202,,Wrocław,3081368,0.3587890097949716,34168,0,
43629,3099824,Dzietrzkowice,1000,51.15803,18.32537,PPL,2011-06-25,74,1018,101805,,Wrocław,3081368,0.27068407962544516,1000,0,
19623,772667,Dziewin,1044,50.07554,20.45491,PPL,2010-09-10,77,1201,120103,,Kraków,3094802,0.32928435515870563,1044,0,
43583,3099778,Dziećmorowice,1162,50.76947,16.35212,PPL,2010-10-20,72,0221,022108,,Wrocław,3081368,0.28543846686118424,1162,0,
19618,772662,Dzikowiec,1400,50.27288,21.84365,PPLA3,2010-10-13,80,1806,180606,,,,0.0,1400,0,
19614,772658,Dzików Stary,1320,50.24699,22.92984,PPLA3,2010-09-28,80,1809,180907,,,,0.0,1320,0,
43598,3099793,Dziuplina,336,51.06738,17.33666,PPL,2015-09-05,72,0215,021503,,Wrocław,3081368,0.488737820335621,336,0,
43588,3099783,Dziwnów,2904,54.02819,14.76691,PPLA3,2010-09-20,87,3207,320701,,,,0.0,2904,0,
43586,3099781,Dziwnówek,400,54.0348,14.80545,PPL,2010-09-07,87,3207,320701,,,,0.0,400,0,
43691,3099887,Dzięgielów,1332,49.72259,18.70491,PPL,2018-06-24,83,2403,240307,,Kraków,3094802,0.2602937799652765,1332,0,
19598,772641,Dzwola,936,50.69657,22.56729,PPLA3,2010-10-14,75,0605,060503,,,,0.0,936,0,
44676,3100880,Dąbie,2003,52.08668,18.8225,PPLA3,2010-10-14,86,3009,300904,,Łódź,3093133,0.36507965652473373,2003,0,
44677,3100881,Dąbie,417,52.01056,15.15221,PPLA3,2010-10-16,76,0802,080204,,,,0.0,417,0,
20549,773596,Dąbrowa,300,54.27397,20.8069,PPL,2010-09-12,85,2801,280103,,,,0.0,300,0,
20572,773619,Dąbrowa,68,51.47732,20.15047,PPL,2010-09-12,74,1016,101605,,Łódź,3093133,0.3643016666299936,68,0,
44607,3100811,Dąbrowa,372,54.27535,16.39418,PPL,2010-09-12,87,3209,320907,,,,0.0,372,0,
44609,3100813,Dąbrowa,243,54.11562,18.86825,PPL,2010-09-12,82,2209,220903,,,,0.0,243,0,
44645,3100849,Dąbrowa,1100,50.68352,17.74957,PPL,2010-09-12,79,1609,160902,,Wrocław,3081368,0.343676912679157,1100,0,
20592,773639,Dąbrowa,990,50.00636,20.25441,PPL,2010-10-17,77,1219,121903,,Kraków,3094802,0.4939289869687489,990,0,
44616,3100820,Dąbrowa,1101,52.74668,17.94342,PPLA3,2010-09-15,73,0409,040901,,Poznań,3088171,0.28426670381750874,1101,0,
20546,773593,Dąbrowa Białostocka,6044,53.65364,23.34792,PPLA3,2019-09-05,81,2011,201101,,,,0.0,6044,0,
44601,3100805,Dąbrowa Biskupia,1000,52.77868,18.54329,PPL,2020-07-09,73,0407,040702,,,,0.0,1000,0,
44598,3100802,Dąbrowa Chełmińska,1400,53.17518,18.30537,PPL,2010-09-13,73,0403,040302,,,,0.0,1400,0,
44592,3100796,Dąbrowa Górnicza,118285,50.33394,19.20479,PPL,2021-11-19,83,2465,246501,,Kraków,3094802,0.3781670834824768,118285,0,
20522,773569,Dąbrowa Tarnowska,11291,50.17462,20.98633,PPLA2,2012-10-01,77,1204,120402,,Kraków,3094802,0.29384016381362144,11291,0,
1569,754505,Dąbrowa Wysoka,196,54.03379,20.95977,PPL,2010-09-22,85,2814,281408,,,,0.0,196,0,
44574,3100778,Dąbrowa Zielona,881,50.84394,19.55652,PPLA3,2010-10-21,83,2404,240402,,Kraków,3094802,0.2786637672578455,881,0,
44568,3100772,Dąbrowice,1300,52.31142,19.08437,PPLA3,2010-10-14,74,1002,100203,,Łódź,3093133,0.31158076201370377,1300,0,
44503,3100707,Dąbrowno,135,51.88476,15.92194,PPL,2010-10-16,76,0804,080405,,Poznań,3088171,0.2614957070984279,135,0,
44504,3100708,Dąbrowno,522,50.67161,19.54116,PPL,2010-10-16,83,2409,240903,,Kraków,3094802,0.30583556272885687,522,0,
20493,773540,Dąbrówka,267,50.81938,22.22809,PPL,2010-10-19,75,0605,060507,,,,0.0,267,0,
20478,773525,Dąbrówka,535,52.48388,21.29794,PPLA3,2011-07-31,78,1434,143405,,Warszawa,6695624,0.539494762962951,535,0,
44502,3100706,Dąbrówno,246,54.42617,17.46792,PPL,2010-10-16,82,2212,221207,,,,0.0,246,0,
20431,773478,Dąbrówno,1400,53.43408,20.03529,PPLA3,2010-10-16,85,2815,281502,,,,0.0,1400,0,
20344,773391,Dębe,220,52.58428,22.08286,PPL,2010-11-03,78,1429,142905,,Warszawa,6695624,0.32082736425022584,220,0,
20346,773393,Dębe,384,52.49428,20.92286,PPL,2010-11-03,78,1408,140804,,Warszawa,6695624,0.5682472077166647,384,0,
44409,3100613,Dębe,399,52.87675,16.54309,PPL,2010-11-03,86,3002,300205,,Poznań,3088171,0.2906455146690241,399,0,
44410,3100614,Dębe,700,51.79959,18.1925,PPL,2010-11-03,86,3007,300711,,Łódź,3093133,0.2586640259880749,700,0,
20342,773389,Dębe Małe,290,52.01003,21.7592,PPL,2010-11-03,78,1412,141210,,Warszawa,6695624,0.35339113412863915,290,0,
20345,773392,Dębe Wielkie,286,52.50462,21.6035,PPL,2010-11-03,78,1434,143406,,Warszawa,6695624,0.39992858224378275,286,0,
20339,773386,Dębe Wielkie,2750,52.19961,21.44334,PPLA3,2010-10-17,78,1412,141205,,Warszawa,6695624,0.5930041975591676,2750,0,
39540,3095712,Dębe-Kolonia,183,51.79009,18.22881,PPL,2010-11-03,86,3007,300708,,Łódź,3093133,0.26885281139587097,183,0,
20333,773380,Dębica,47366,50.05146,21.41141,PPLA2,2012-10-01,80,1803,180301,,,,0.0,47366,0,
20310,773357,Dęblin,17775,51.55912,21.84829,PPLA3,2010-09-27,75,0616,061601,,Warszawa,6695624,0.2677763805550533,17775,0,
44349,3100553,Dębnica Kaszubska,3220,54.37831,17.16116,PPLA3,2010-09-24,82,2212,221203,,,,0.0,3220,0,
20293,773340,Dębno,1500,50.19811,22.51837,PPL,2010-10-13,80,1808,180804,,,,0.0,1500,0,
20295,773342,Dębno,822,49.46634,20.20643,PPL,2010-10-30,77,1211,121109,,Kraków,3094802,0.32868898401572444,822,0,
20294,773341,Dębno,1601,49.96701,20.71979,PPLA3,2010-09-16,77,1202,120204,,Kraków,3094802,0.3989928545065267,1601,0,
44341,3100545,Dębno,13804,52.73901,14.698,PPLA3,2019-09-05,87,3210,321003,,,,0.0,13804,0,
44336,3100540,Dębno Polskie,620,51.5855,16.87981,PPL,2010-10-19,86,3022,302205,,Wrocław,3081368,0.3181736893013395,620,0,
44326,3100530,Dębogórze,962,54.59086,18.45858,PPL,2010-10-21,82,2211,221105,,,,0.0,962,0,
20286,773333,Dęborzyn,346,49.91067,21.31794,PPL,2010-10-17,80,1803,180305,,,,0.0,346,0,
20279,773326,Dębowa Kłoda,474,51.59446,23.0064,PPLA3,2010-10-16,75,0613,061301,,,,0.0,474,0,
44314,3100518,Dębowa Łąka,750,53.25541,19.09595,PPLA3,2010-09-16,73,0417,041702,,,,0.0,750,0,
44311,3100515,Dębowiec,1786,49.81406,18.72062,PPL,2010-09-06,83,2403,240306,,Kraków,3094802,0.27792652175085547,1786,0,
20266,773313,Dębowiec,262,54.301,20.2284,PPL,2010-09-08,85,2802,280204,,,,0.0,262,0,
20270,773317,Dębowiec,682,50.79845,23.33221,PPL,2010-09-08,75,0620,062010,,,,0.0,682,0,
44301,3100505,Dębowiec,484,53.58288,18.02444,PPL,2010-09-24,73,0416,041601,,,,0.0,484,0,
44302,3100506,Dębowiec,153,53.23317,18.29824,PPL,2010-09-24,73,0403,040302,,,,0.0,153,0,
44304,3100508,Dębowiec,91,52.74871,15.96142,PPL,2010-09-24,86,3014,301404,,Poznań,3088171,0.29609623558374043,91,0,
44306,3100510,Dębowiec,300,52.4603,18.1416,PPL,2010-09-24,86,3010,301014,,Poznań,3088171,0.2659413986571333,300,0,
44312,3100516,Dębowiec,261,50.59789,17.08297,PPL,2010-09-24,72,0224,022406,,Wrocław,3081368,0.3121882156044113,261,0,
20273,773320,Dębowiec,2000,49.68374,21.46068,PPLA3,2022-12-23,80,1805,180503,,,,0.0,2000,0,
20252,773299,Dębsk,418,53.11525,20.49723,PPL,2010-11-03,78,1413,141308,,,,0.0,418,0,
20285,773332,Dębów,1244,50.0449,22.43614,PPL,2010-10-13,80,1814,181403,,,,0.0,1244,0,
20262,773309,Dębówka,279,52.18272,20.54461,PPL,2010-11-27,78,1432,143201,,Warszawa,6695624,0.5219274550648533,279,0,
20203,773250,Długie,2600,49.57866,22.04338,PPL,2010-09-25,80,1817,181708,,,,0.0,2600,0,
52420,7534710,Długobórz Drugi,153,52.93938,22.22569,PPL,2010-09-11,81,2014,201405,,,,0.0,153,0,
20187,773234,Długobórz Pierwszy,119,52.94476,22.24354,PPL,2010-09-11,81,2014,201405,,,,0.0,119,0,
44226,3100429,Długomiłowice,1600,50.28298,18.14873,PPL,2010-10-20,79,1603,160306,,,,0.0,1600,0,
44225,3100428,Długopole,486,49.47585,19.92057,PPL,2010-10-30,77,1211,121109,,Kraków,3094802,0.34962909864920505,486,0,
20170,773217,Długosiodło,2020,52.75998,21.59183,PPL,2010-09-12,78,1435,143502,,Warszawa,6695624,0.27029203949748115,2020,0,
44218,3100421,Długołęka,2620,51.17902,17.19137,PPLA3,2010-10-21,72,0223,022302,,Wrocław,3081368,0.6252769005457771,2620,0,
44214,3100417,Dłutów,1000,51.55936,19.39198,PPLA3,2010-10-15,74,1008,100803,,Łódź,3093133,0.4882266033252857,1000,0,
20150,773197,Dłużew,78,52.0527,21.58977,PPL,2010-11-21,78,1412,141213,,Warszawa,6695624,0.44728228943927845,78,0,
19601,772644,Dźwierzuty,1380,53.70494,20.96037,PPL,2010-09-09,85,2817,281702,,,,0.0,1380,0,
43574,3099769,Dźwirzyno,699,54.15927,15.41116,PPL,2019-10-08,87,3208,320804,,,,0.0,699,0,
43565,3099759,Elbląg,127558,54.1522,19.40884,PPLA2,2020-06-11,85,2861,286101,,,,0.0,127558,0,
19579,772621,Ełk,55769,53.82824,22.36469,PPLA2,2010-10-28,85,2805,280501,,,,0.0,55769,0,
43526,3099720,Fabianki,660,52.71929,19.10943,PPLA3,2010-09-16,73,0418,041807,,,,0.0,660,0,
43521,3099715,Facimiech,602,49.96679,19.71977,PPL,2010-10-23,77,1206,120611,,Kraków,3094802,0.5701579754769386,602,0,
19542,772584,Fajsławice,1457,51.09592,22.96323,PPLA3,2010-10-16,75,0606,060602,,,,0.0,1457,0,
19527,772569,Falenty Duże,122,52.13317,20.91462,PPL,2010-11-27,78,1421,142106,,Warszawa,6695624,0.7629770767146744,122,0,
19519,772561,Fałków,1100,51.13606,20.1061,PPLA3,2010-10-06,84,2605,260501,,Łódź,3093133,0.27995134591292115,1100,0,
43485,3099679,Filipowice,2090,50.15573,19.56579,PPL,2010-10-17,77,1206,120606,,Kraków,3094802,0.42598190568038374,2090,0,
19486,772528,Filipów,2234,54.18037,22.62076,PPL,2015-01-15,81,2012,201202,,,,0.0,2234,0,
19476,772518,Firlej,1000,51.55882,22.50841,PPLA3,2010-09-18,75,0608,060803,,,,0.0,1000,0,
43460,3099654,Fordon,70000,53.14821,18.17036,PPL,2010-10-28,73,0461,046101,,,,0.0,70000,0,
19450,772492,Frampol,1411,50.67159,22.67061,PPLA3,2010-10-14,75,0602,060205,,,,0.0,1411,0,
19439,772481,Franciszków,605,52.02123,20.33054,PPL,2010-11-27,78,1438,143805,,Warszawa,6695624,0.3596249732010706,605,0,
19428,772470,Fredropol,600,49.69578,22.74625,PPLA3,2010-09-25,80,1813,181303,,,,0.0,600,0,
43441,3099635,Frelichów,600,49.90923,18.81186,PPL,2010-09-08,83,2403,240305,,Kraków,3094802,0.2655309642148234,600,0,
43440,3099634,Frombork,2529,54.35766,19.68029,PPLA3,2010-10-21,85,2802,280203,,,,0.0,2529,0,
43436,3099630,Frydek,1019,49.99626,19.07278,PPL,2010-10-23,83,2410,241003,,Kraków,3094802,0.3669541825215616,1019,0,
19425,772467,Frydman,1622,49.44927,20.22961,PPL,2010-10-30,77,1211,121108,,Kraków,3094802,0.3167207280331017,1622,0,
43435,3099629,Frydrychowice,2799,49.90481,19.41936,PPL,2010-10-17,77,1218,121810,,Kraków,3094802,0.2933783171597825,2799,0,
19423,772465,Frysztak,950,49.84164,21.60942,PPLA3,2010-10-14,80,1819,181902,,,,0.0,950,0,
43431,3099625,Frywałd,267,50.09118,19.66038,PPL,2010-11-03,77,1206,120606,,Kraków,3094802,0.5490489869030165,267,0,
43372,3099566,Gajków,538,51.05952,17.18691,PPL,2010-10-19,72,0223,022301,,Wrocław,3081368,0.6787577939935523,538,0,
43350,3099544,Galewice,1200,51.34471,18.25756,PPLA3,2010-10-16,74,1018,101803,,Wrocław,3081368,0.24685936526297883,1200,0,
19333,772372,Garbatka-Letnisko,3295,51.4832,21.61079,PPLA3,2010-10-30,78,1407,140701,,Warszawa,6695624,0.27175471661508177,3295,0,
43311,3099505,Garbów,134,52.15735,19.59034,PPL,2010-10-11,74,1002,100202,,Łódź,3093133,0.27303108698405987,134,0,
43312,3099506,Garbów,207,51.57093,19.54837,PPL,2010-10-11,74,1006,100611,,Łódź,3093133,0.5085157588439378,207,0,
43313,3099507,Garbów,200,50.88463,17.46346,PPL,2010-10-11,79,1601,160105,,Wrocław,3081368,0.2777116824129098,200,0,
19327,772366,Garbów,2060,51.35517,22.32937,PPLA3,2010-10-11,75,0609,060904,,,,0.0,2060,0,
43304,3099498,Garcz,1908,54.3476,18.10169,PPL,2010-10-19,82,2205,220501,,,,0.0,1908,0,
43298,3099492,Gardeja,2500,53.61125,18.94687,PPL,2018-12-24,82,2207,220702,,,,0.0,2500,0,
43287,3099481,Garki,700,51.53763,17.64293,PPL,2010-11-03,86,3017,301703,,Wrocław,3081368,0.26114895334734106,700,0,
19300,772339,Garwolin,15912,51.89747,21.61466,PPLA2,2010-09-17,78,1403,140301,,Warszawa,6695624,0.35838203663975704,15912,0,
43259,3099452,Gaszowice,2861,50.10858,18.43042,PPLA3,2010-09-20,83,2412,241202,,,,0.0,2861,0,
43252,3099445,Gaworzyce,1500,51.62773,15.88198,PPL,2010-09-10,72,0216,021602,,,,0.0,1500,0,
19248,772287,Gawłuszowice,700,50.41366,21.38283,PPL,2010-09-12,80,1811,181104,,,,0.0,700,0,
19409,772451,Gać,986,53.0799,22.24637,PPL,2010-09-27,81,2007,200702,,,,0.0,986,0,
19411,772453,Gać,73,52.38985,20.55842,PPL,2010-09-27,78,1414,141403,,Warszawa,6695624,0.4960343962601897,73,0,
43415,3099609,Gać,50,54.69442,17.45702,PPL,2010-09-27,82,2212,221204,,,,0.0,50,0,
19413,772455,Gać,1550,50.02693,22.35898,PPLA3,2010-09-27,80,1814,181403,,,,0.0,1550,0,
43340,3099534,Gałków Duży,914,51.73607,19.72475,PPL,2010-10-15,74,1006,100607,,Łódź,3093133,0.5916245747435543,914,0,
43335,3099529,Gałków Mały,1455,51.72554,19.71359,PPL,2010-10-15,74,1006,100607,,Łódź,3093133,0.59947553182822,1455,0,
43333,3099527,Gałów,421,51.11161,16.81578,PPL,2010-10-21,72,0218,021803,,Wrocław,3081368,0.6018855144779007,421,0,
